oepid,accreditor,pred_degree,highest_degree,control,region,admission_rate,ccbasic,in_state_tuit,out_state_tuit,prog_year_tuit,revenue_tuit,avg_faculty_salary,two_yr_default,three_yr_default,sat_avg,prop_loan,name,address,ZIP,fips,city,state,cbsa,csa,longitude,latitude,extracted_year
100200,,Bachelor,Graduate,Public,Southeast,0.8986,,9744.0,18354.0,,7413.0,7101.0,,0.182,957.0,0.7503,Alabama A & M University,"Normal, AL - 4900 Meridian Street",35762,1.0,Normal,AL,26620.0,290.0,-86.568502,34.783368,2019-01-01
105200,,Bachelor,Graduate,Public,Southeast,0.9211,,8568.0,19704.0,,13177.0,10717.0,,0.057,1220.0,0.5127,University of Alabama at Birmingham,"Birmingham, AL - Administration Bldg Suite 1070",35294-0110,1.0,Birmingham,AL,13820.0,142.0,-86.799345,33.505697,2019-01-01
2503400,,Bachelor,Graduate,Private Non-Profit,Southeast,,,6900.0,6900.0,,14273.0,4292.0,,0.11,,0.8962,Amridge University,"Montgomery, AL - 1200 Taylor Rd",36117-3553,1.0,Montgomery,AL,33860.0,388.0,-86.17401,32.362609,2019-01-01
105500,,Bachelor,Graduate,Public,Southeast,0.8087,,10714.0,22362.0,,8677.0,9442.0,,0.059,1314.0,0.4192,University of Alabama in Huntsville,"Huntsville, AL - 301 Sparkman Dr",35899,1.0,Huntsville,AL,26620.0,290.0,-86.640449,34.724557,2019-01-01
100500,,Bachelor,Graduate,Public,Southeast,0.9774,,11068.0,19396.0,,10160.0,7754.0,,0.203,972.0,0.7845,Alabama State University,"Montgomery, AL - 915 S Jackson Street",36104-0271,1.0,Montgomery,AL,33860.0,388.0,-86.295677,32.364317,2019-01-01
105100,,Bachelor,Graduate,Public,Southeast,0.5906,,10780.0,29230.0,,14198.0,10225.0,,0.051,1252.0,0.3847,The University of Alabama,"Tuscaloosa, AL - 739 University Blvd",35487-0100,1.0,Tuscaloosa,AL,46220.0,-2.0,-87.545978,33.211875,2019-01-01
100700,,Certificate,Associate,Public,Southeast,,,4740.0,8610.0,,1771.0,6291.0,,0.196,,0.2104,Central Alabama Community College,"Alexander City, AL - 1675 Cherokee Rd",35010,1.0,Alexander City,AL,10760.0,388.0,-85.945266,32.92478,2019-01-01
100800,,Bachelor,Graduate,Public,Southeast,,,,,,6817.0,8538.0,,0.075,,0.5079,Athens State University,"Athens, AL - 300 N Beaty St",35611,1.0,Athens,AL,26620.0,290.0,-86.964698,34.806793,2019-01-01
831000,,Bachelor,Graduate,Public,Southeast,0.9281,,8404.0,17812.0,,7582.0,7678.0,,0.104,1084.0,0.5539,Auburn University at Montgomery,"Montgomery, AL - 7440 East Drive",36117-3596,1.0,Montgomery,AL,33860.0,388.0,-86.177544,32.36736,2019-01-01
100900,,Bachelor,Graduate,Public,Southeast,0.7543,,11276.0,30524.0,,15908.0,10428.0,,0.036,1289.0,0.3169,Auburn University,"Auburn, AL -  ",36849,1.0,Auburn,AL,12220.0,194.0,-85.488258,32.599378,2019-01-01
101200,,Bachelor,Bachelor,Private Non-Profit,Southeast,0.5666,,17650.0,17650.0,,11383.0,7688.0,,0.048,1232.0,0.4567,Birmingham-Southern College,"Birmingham, AL - 900 Arkadelphia Road",35254,1.0,Birmingham,AL,13820.0,142.0,-86.850552,33.513774,2019-01-01
1218200,,Associate,Associate,Public,Southeast,,,4738.0,8608.0,,2036.0,6113.0,,0.15,,0.2156,Chattahoochee Valley Community College,"Phenix City, AL - 2602 College Drive",36869,1.0,Phenix City,AL,17980.0,194.0,-85.031485,32.42391,2019-01-01
1303906,,Bachelor,Graduate,Private For-Profit,Southeast,,,17014.0,17014.0,,11386.0,5304.0,,0.116,,0.6585,South University-Montgomery,"Montgomery, AL - 5355 Vaughn Rd",36116,1.0,Montgomery,AL,33860.0,388.0,-86.216488,32.342684,2019-01-01
101500,,Associate,Associate,Public,Southeast,,,4740.0,8610.0,,2315.0,6335.0,,0.179,,0.1519,Enterprise State Community College,"Enterprise, AL - 600 Plaza Drive",36330-1300,1.0,Enterprise,AL,21460.0,-2.0,-85.836956,31.297496,2019-01-01
106000,,Associate,Associate,Public,Southeast,,,4740.0,8610.0,,2524.0,6343.0,,0.177,,0.2235,Coastal Alabama Community College,"Bay Minette, AL - 1900 U S Highway 31 South",36507-2698,1.0,Bay Minette,AL,19300.0,380.0,-87.778193,30.851343,2019-01-01
100300,,Bachelor,Graduate,Private Non-Profit,Southeast,0.5227,,21690.0,21690.0,,11044.0,5743.0,,0.125,1069.0,0.5988,Faulkner University,"Montgomery, AL - 5345 Atlanta Hwy",36109-3390,1.0,Montgomery,AL,33860.0,388.0,-86.21641,32.384181,2019-01-01
101700,,Associate,Associate,Public,Southeast,,,3840.0,7056.0,,1940.0,6433.0,,,,0.0,Gadsden State Community College,"Gadsden, AL - 1001 George Wallace Dr",35903,1.0,Gadsden,AL,23460.0,-2.0,-85.991438,33.994001,2019-01-01
4187200,,Certificate,Certificate,Private For-Profit,Southeast,,,,,11040.0,5408.0,,,0.065,,0.5401,New Beginning College of Cosmetology,"Albertville, AL - 421 Martling Road",35951,1.0,Albertville,AL,10700.0,-2.0,-86.196931,34.27871,2019-01-01
101800,,Associate,Associate,Public,Southeast,,,4680.0,8550.0,,2179.0,5991.0,,,,0.0,George C Wallace Community College-Dothan,"Dothan, AL - 1141 Wallace Drive",36303-9234,1.0,Dothan,AL,37120.0,222.0,-85.465836,31.315274,2019-01-01
787100,,Associate,Associate,Public,Southeast,,,4740.0,8610.0,,2845.0,5878.0,,0.142,,0.3007,George C Wallace State Community College-Hanceville,"Hanceville, AL - 801 Main St NW",35077-2000,1.0,Hanceville,AL,18980.0,142.0,-86.781935,34.072439,2019-01-01
569900,,Associate,Associate,Public,Southeast,,,4440.0,8310.0,,1538.0,5016.0,,,,0.0,George C Wallace State Community College-Selma,"Selma, AL - 3000 Earl Goodwin Parkway",36703-2808,1.0,Selma,AL,42820.0,388.0,-87.013294,32.445917,2019-01-01
962107,,Certificate,Graduate,Private Non-Profit,Southeast,0.95,,14000.0,14000.0,,13723.0,5988.0,,0.127,,0.7593,Herzing University-Birmingham,"Birmingham, AL - 280 West Valley Ave",35209,1.0,Birmingham,AL,13820.0,142.0,-86.832465,33.468466,2019-01-01
101900,,Bachelor,Bachelor,Private Non-Profit,Southeast,0.5841,,27400.0,27400.0,,11149.0,6810.0,,0.098,1100.0,0.7096,Huntingdon College,"Montgomery, AL - 1500 East Fairview Avenue",36106-2148,1.0,Montgomery,AL,33860.0,388.0,-86.284366,32.351034,2019-01-01
2199700,,Bachelor,Graduate,Private Non-Profit,Southeast,,,11232.0,11232.0,,11932.0,4681.0,,0.181,,0.0345,Heritage Christian University,"Florence, AL - 3625 Helton Dr",35630-9977,1.0,Florence,AL,22520.0,-2.0,-87.663051,34.856153,2019-01-01
526000,,Certificate,Associate,Public,Southeast,,,4710.0,8580.0,,1599.0,6096.0,,,,0.0,J. F. Drake State Community and Technical College,"Huntsville, AL - 3421 Meridian St N",35811,1.0,Huntsville,AL,26620.0,290.0,-86.572885,34.771858,2019-01-01
3002500,,Certificate,Certificate,Public,Southeast,,,5328.0,5328.0,,116.0,5597.0,,,,0.0,J F Ingram State Technical College,"Deatsville, AL - 5375 Ingram Rd",36022,1.0,Deatsville,AL,33860.0,388.0,-86.392369,32.582312,2019-01-01
102000,,Bachelor,Graduate,Public,Southeast,0.543,,8760.0,16536.0,,6509.0,7122.0,,0.098,1135.0,0.6428,Jacksonville State University,"Jacksonville, AL - 700 Pelham Road North",36265,1.0,Jacksonville,AL,11500.0,-2.0,-85.765321,33.822938,2019-01-01
102200,,Associate,Associate,Public,Southeast,,,4800.0,8670.0,,3111.0,6676.0,,0.138,,0.1826,Jefferson State Community College,"Birmingham, AL - 2601 Carson Rd",35215-3098,1.0,Birmingham,AL,13820.0,142.0,-86.707233,33.652535,2019-01-01
101300,,Associate,Associate,Public,Southeast,,,4820.0,8690.0,,3537.0,6559.0,,0.168,,0.2141,John C Calhoun State Community College,"Tanner, AL - 6250 U S Highway 31 N",35671,1.0,Tanner,AL,26620.0,290.0,-86.949674,34.645844,2019-01-01
102300,,Bachelor,Bachelor,Private Non-Profit,Southeast,0.482,,18510.0,18510.0,,8288.0,6076.0,,0.177,1054.0,0.6794,Judson College,"Marion, AL - 302 Bibb St",36756,1.0,Marion,AL,-2.0,-2.0,-87.315206,32.629253,2019-01-01
105900,,Certificate,Associate,Public,Southeast,,,4740.0,8610.0,,1449.0,6337.0,,,,0.0,Lawson State Community College,"Birmingham, AL - 3060 Wilson Rd SW",35221-1717,1.0,Birmingham,AL,13820.0,142.0,-86.888844,33.450814,2019-01-01
102400,,Bachelor,Graduate,Public,Southeast,0.3966,,10040.0,18490.0,,7929.0,6461.0,,0.078,1059.0,0.693,University of West Alabama,"Livingston, AL - Station One",35470,1.0,Livingston,AL,-2.0,-2.0,-88.186329,32.588132,2019-01-01
898800,,Certificate,Associate,Public,Southeast,,,4740.0,8610.0,,1975.0,5945.0,,,,0.0,Lurleen B Wallace Community College,"Andalusia, AL - 1000 Dannelly Blvd.",36420-1418,1.0,Andalusia,AL,-2.0,-2.0,-86.452262,31.322947,2019-01-01
102600,,Associate,Associate,Public,Southeast,0.5646,,9418.0,15418.0,,2016.0,6302.0,,0.093,1155.0,0.4843,Marion Military Institute,"Marion, AL - 1101 Washington St",36756-3207,1.0,Marion,AL,-2.0,-2.0,-87.322041,32.623734,2019-01-01
102800,,Bachelor,Bachelor,Private Non-Profit,Southeast,,,12132.0,12132.0,,4728.0,4615.0,,0.111,,0.9255,Miles College,"Fairfield, AL - 5500 Myron Massey Blvd",35064-2621,1.0,Fairfield,AL,13820.0,142.0,-86.908751,33.482442,2019-01-01
102900,,Bachelor,Graduate,Private Non-Profit,Southeast,0.4704,,23230.0,23230.0,,10177.0,4863.0,,0.096,1094.0,0.6473,University of Mobile,"Mobile, AL - 5735 College Parkway Drive",36613-2842,1.0,Mobile,AL,33660.0,380.0,-88.128934,30.793247,2019-01-01
100400,,Bachelor,Graduate,Public,Southeast,0.4848,,12760.0,25780.0,,8343.0,7710.0,,0.073,1170.0,0.5708,University of Montevallo,"Montevallo, AL - Station 6001",35115-6000,1.0,Montevallo,AL,13820.0,142.0,-86.865099,33.10625,2019-01-01
569700,,Certificate,Associate,Public,Southeast,,,4711.0,8581.0,,2721.0,4650.0,,0.23,,0.1971,Northwest-Shoals Community College,"Muscle Shoals, AL - 800 George Wallace Blvd",35661,1.0,Muscle Shoals,AL,22520.0,-2.0,-87.678089,34.739788,2019-01-01
101600,,Bachelor,Graduate,Public,Southeast,0.6434,,10142.0,18452.0,,7591.0,7898.0,,0.116,1134.0,0.5765,University of North Alabama,"Florence, AL - One Harrison Plaza",35632-0001,1.0,Florence,AL,22520.0,-2.0,-87.681361,34.806738,2019-01-01
103100,,Associate,Associate,Public,Southeast,,,4740.0,8610.0,,2053.0,6335.0,,0.121,,0.0749,Northeast Alabama Community College,"Rainsville, AL - 138  Highway 35",35986,1.0,Rainsville,AL,42460.0,497.0,-85.911664,34.545471,2019-01-01
103300,,Bachelor,Graduate,Private Non-Profit,Southeast,0.6589,,19732.0,19732.0,,14766.0,4970.0,,0.104,999.0,0.6965,Oakwood University,"Huntsville, AL - 7000 Adventist Blvd NW",35896,1.0,Huntsville,AL,26620.0,290.0,-86.652705,34.756344,2019-01-01
569200,,Certificate,Associate,Public,Southeast,,,4800.0,8670.0,,1639.0,6351.0,,,,0.0,Reid State Technical College,"Evergreen, AL - 100 and Hwy 83",36401,1.0,Evergreen,AL,-2.0,-2.0,-86.964797,31.460265,2019-01-01
103000,,Certificate,Associate,Public,Southeast,,,4740.0,8610.0,,1695.0,6296.0,,,,0.0,Bishop State Community College,"Mobile, AL - 351 North Broad Street",36603-5898,1.0,Mobile,AL,33660.0,380.0,-88.056982,30.693972,2019-01-01
103600,,Bachelor,Graduate,Private Non-Profit,Southeast,0.8208,,31650.0,31650.0,,19266.0,8888.0,,0.029,1228.0,0.3323,Samford University,"Birmingham, AL - 800 Lakeshore Drive",35229-2240,1.0,Birmingham,AL,13820.0,142.0,-86.791799,33.464128,2019-01-01
4067300,,Bachelor,Graduate,Private Non-Profit,Southeast,,,7410.0,7410.0,,14124.0,2957.0,,0.342,,0.9325,Selma University,"Selma, AL - 1501 Lapsley St, Dinkins Hall",36701,1.0,Selma,AL,42820.0,388.0,-87.032392,32.420387,2019-01-01
569100,,Associate,Associate,Public,Southeast,,,4467.0,8907.0,,2510.0,4936.0,,,,0.0,Shelton State Community College,"Tuscaloosa, AL - 9500 Old Greensboro Rd",35405-8522,1.0,Tuscaloosa,AL,46220.0,-2.0,-87.56148,33.120531,2019-01-01
103800,,Associate,Associate,Public,Southeast,,,4800.0,8670.0,,2830.0,7648.0,,0.205,,0.2176,Snead State Community College,"Boaz, AL - 102 Elder Street",35957-0734,1.0,Boaz,AL,10700.0,-2.0,-86.169897,34.201495,2019-01-01
105700,,Bachelor,Graduate,Public,Southeast,0.7931,,8396.0,16292.0,,9364.0,7239.0,,0.084,1186.0,0.5538,University of South Alabama,"Mobile, AL - 307 N University Blvd",36688-0002,1.0,Mobile,AL,33660.0,380.0,-88.178711,30.696033,2019-01-01
104100,,Bachelor,Graduate,Private Non-Profit,Southeast,0.6577,,39464.0,39464.0,,12357.0,6672.0,,0.059,1130.0,0.7923,Spring Hill College,"Mobile, AL - 4000 Dauphin St",36608-1791,1.0,Mobile,AL,33660.0,380.0,-88.138199,30.694751,2019-01-01
104400,,Bachelor,Bachelor,Private Non-Profit,Southeast,0.3859,,11092.0,11092.0,,7563.0,5094.0,,0.231,,0.9232,Stillman College,"Tuscaloosa, AL - 3601 Stillman Boulevard",35401,1.0,Tuscaloosa,AL,46220.0,-2.0,-87.585278,33.200006,2019-01-01
104600,,Bachelor,Bachelor,Private Non-Profit,Southeast,,,13571.0,13571.0,,8315.0,5861.0,,0.235,,0.8261,Talladega College,"Talladega, AL - 627 West Battle Street",35160,1.0,Talladega,AL,45180.0,142.0,-86.112704,33.433472,2019-01-01
573400,,Certificate,Associate,Public,Southeast,,,4650.0,8520.0,,2293.0,5384.0,,,,0.0,H Councill Trenholm State Community College,"Montgomery, AL - 1225 Air Base Blvd",36108-3199,1.0,Montgomery,AL,33860.0,388.0,-86.343057,32.350109,2019-01-01
104700,,Bachelor,Graduate,Public,Southeast,0.8767,,8908.0,16708.0,,9399.0,6639.0,,0.098,1082.0,0.6253,Troy University,"Troy, AL - University Avenue",36082-0001,1.0,Troy,AL,45980.0,-2.0,-85.957094,31.800672,2019-01-01
105000,,Bachelor,Graduate,Private Non-Profit,Southeast,0.5182,,22170.0,22170.0,,15883.0,4810.0,,0.135,1119.0,0.4744,Tuskegee University,"Tuskegee, AL - Kresge Center, 3rd Floor",36088-1920,1.0,Tuskegee,AL,-2.0,-2.0,-85.708492,32.4309,2019-01-01
2170600,,Bachelor,Graduate,Private Non-Profit,Southeast,,,,,,14842.0,6136.0,,0.061,,0.534,United States Sports Academy,"Daphne, AL - One Academy Drive",36526-7055,1.0,Daphne,AL,19300.0,380.0,-87.91163,30.639329,2019-01-01
573300,,Certificate,Associate,Public,Southeast,,,5086.0,9214.0,,2534.0,6682.0,,,,0.0,Bevill State Community College,"Jasper, AL - 1411 Indiana Avenue",35501,1.0,Jasper,AL,27530.0,142.0,-87.266406,33.836929,2019-01-01
1146200,,Bachelor,Graduate,Public,Far West,0.8115,,8580.0,24762.0,,7253.0,9128.0,,0.105,,0.2243,University of Alaska Anchorage,"Anchorage, AK - 3211 Providence Drive",99508,2.0,Anchorage,AK,11260.0,-2.0,-149.82619,61.190163,2019-01-01
884300,,Bachelor,Bachelor,Private Non-Profit,Far West,,,9600.0,9600.0,,8091.0,3500.0,,0.1,,0.3077,Alaska Bible College,"Palmer, AK - 248 E Elmwood Ave",99645,2.0,Palmer,AK,11260.0,-2.0,-149.111972,61.598553,2019-01-01
106300,,Bachelor,Graduate,Public,Far West,0.7611,,6657.0,20218.0,,8210.0,9584.0,,0.107,1128.0,0.2277,University of Alaska Fairbanks,"Fairbanks, AK - 1731 South Chandalar Drive",99775,2.0,Fairbanks,AK,21820.0,-2.0,-147.823146,64.85756,2019-01-01
106500,,Certificate,Graduate,Public,Far West,0.6333,,7092.0,19856.0,,7626.0,8192.0,,0.098,,0.1922,University of Alaska Southeast,"Juneau, AK - 11066 Auke Lake Way",99801-8697,2.0,Juneau,AK,27940.0,-2.0,-134.638255,58.384846,2019-01-01
106100,,Bachelor,Graduate,Private Non-Profit,Far West,0.8425,,20760.0,20760.0,,13127.0,5467.0,,0.05,,0.4881,Alaska Pacific University,"Anchorage, AK - 4101 University Dr",99508,2.0,Anchorage,AK,11260.0,-2.0,-149.804168,61.190968,2019-01-01
3160300,,Certificate,Certificate,Public,Far West,,,,,3490.0,6522.0,,,0.072,,0.0185,Alaska Vocational Technical Center,"Seward, AK - PO Box 889",99664-0889,2.0,Seward,AK,-2.0,-2.0,-149.444487,60.110626,2019-01-01
2576900,,Certificate,Graduate,Private For-Profit,Far West,1.0,,22655.0,22655.0,,5823.0,4711.0,,0.131,,0.7222,Charter College,"Vancouver, WA - 17200 S.E. Mill Plain Boulevard, Suite 100",98683-7575,53.0,Vancouver,WA,38900.0,440.0,-122.494766,45.617798,2019-01-01
2541000,,Certificate,Associate,Private For-Profit,Far West,,,,,15340.0,8308.0,4068.0,,0.186,,0.8208,Alaska Career College,"Anchorage, AK - 1415 E Tudor Road",99507-1033,2.0,Anchorage,AK,11260.0,-2.0,-149.856954,61.181443,2019-01-01
966403,,Certificate,Certificate,Private For-Profit,Southwest,,,,,19200.0,9489.0,,,0.12,,0.5225,Empire Beauty School-Tucson,"Tucson, AZ - 3030 E Speedway Blvd",85716,4.0,Tucson,AZ,46060.0,536.0,-110.927187,32.235657,2019-01-01
2100600,,Certificate,Associate,Private For-Profit,Southwest,0.8951,,,,14322.0,10702.0,4069.0,,0.181,,0.1973,Carrington College-Phoenix North,"Phoenix, AZ - 8503 N. 27th Ave.",85051-4063,4.0,Phoenix,AZ,38060.0,429.0,-112.116105,33.561689,2019-01-01
2100611,,Certificate,Associate,Private For-Profit,Southwest,,,,,14322.0,14071.0,6037.0,,0.181,,0.282,Carrington College-Mesa,"Mesa, AZ - 1001 W. Southern Ave., Ste. 130",85210,4.0,Mesa,AZ,38060.0,429.0,-111.853218,33.39248,2019-01-01
2100607,,Certificate,Certificate,Private For-Profit,Southwest,0.8736,,,,14322.0,11178.0,4931.0,,0.181,,0.1771,Carrington College-Tucson,"Tucson, AZ - 201 N. Bonita Ave., Ste. 101",85745,4.0,Tucson,AZ,46060.0,536.0,-110.983056,32.224391,2019-01-01
3120300,,Associate,Associate,Private Non-Profit,Southwest,,,16972.0,16972.0,,13124.0,7223.0,,0.185,,0.8205,CollegeAmerica-Flagstaff,"Flagstaff, AZ - 399 Malpais",86001,4.0,Flagstaff,AZ,22380.0,-2.0,-111.657673,35.194495,2019-01-01
886400,,Certificate,Certificate,Private For-Profit,Southwest,,,,,14500.0,8863.0,,,0.057,,0.5773,Arizona Academy of Beauty-East,"Tucson, AZ - 5631 E Speedway Blvd",85712,4.0,Tucson,AZ,46060.0,536.0,-110.872305,32.237253,2019-01-01
2306807,,Certificate,Certificate,Private For-Profit,Southwest,,,,,19220.0,19545.0,,,0.255,,0.5948,Platt College-Arizona Automotive Institute Arizona,"Glendale, AZ - 6829 N 46th Ave",85301-3579,4.0,Glendale,AZ,38060.0,429.0,-112.157344,33.537249,2019-01-01
2218800,,Certificate,Graduate,Private For-Profit,Southwest,,,,,85000.0,29009.0,6204.0,,0.206,,0.6965,Brookline College-Phoenix,"Phoenix, AZ - 2445 W. Dunlap Ave., Ste. 100",85021,4.0,Phoenix,AZ,38060.0,429.0,-112.112473,33.566102,2019-01-01
108100,,Bachelor,Graduate,Public,Southwest,0.8478,,10822.0,28336.0,,20364.0,11451.0,,0.062,1240.0,0.3652,Arizona State University-Tempe,"Tempe, AZ - University Drive and Mill Avenue",85287,4.0,Tempe,AZ,38060.0,429.0,-111.934383,33.417721,2019-01-01
107100,,Certificate,Associate,Public,Southwest,,,2720.0,9710.0,,904.0,6333.0,,0.183,,0.0188,Arizona Western College,"Yuma, AZ - 2020 S. Avenue 8E",85365-8834,4.0,Yuma,AZ,49740.0,-2.0,-114.495968,32.689306,2019-01-01
108300,,Bachelor,Graduate,Public,Southwest,0.8442,,12467.0,36366.0,,15599.0,11147.0,,0.06,1198.0,0.3749,University of Arizona,"Tucson, AZ - 1401 E University",85721-0066,4.0,Tucson,AZ,46060.0,536.0,-110.950815,32.232672,2019-01-01
2491500,,Bachelor,Bachelor,Private For-Profit,Southwest,,,23069.0,23069.0,,20889.0,5226.0,,0.196,,0.6885,Southwest University of Visual Arts-Tucson,"Tucson, AZ - 2525 N Country Club Rd",85716,4.0,Tucson,AZ,46060.0,536.0,-110.927265,32.252879,2019-01-01
728300,,Certificate,Associate,Public,Southwest,,,2580.0,11100.0,,1429.0,6498.0,,0.21,,0.0871,Central Arizona College,"Coolidge, AZ - 8470 N Overfield Rd",85128-9030,4.0,Coolidge,AZ,38060.0,429.0,-111.652501,32.957092,2019-01-01
2280500,,Certificate,Certificate,Private For-Profit,Southwest,,,,,12500.0,12372.0,,,0.111,,0.5467,Charles of Italy Beauty College,"Lake Havasu City, AZ - 1987 McCulloch Blvd, Suite 205",86403,4.0,Lake Havasu City,AZ,29420.0,-2.0,-114.332686,34.477485,2019-01-01
107200,,Associate,Associate,Public,Southwest,,,2040.0,6240.0,,877.0,6550.0,,0.068,,0.0683,Cochise County Community College District,"Sierra Vista, AZ - 901 N Colombo Ave",85635-2317,4.0,Sierra Vista,AZ,43420.0,-2.0,-110.246946,31.564597,2019-01-01
1054207,,Certificate,Certificate,Private For-Profit,Southwest,,,,,19200.0,8790.0,,,0.133,,0.5484,Empire Beauty School-Flagstaff,"Flagstaff, AZ - 1790 E Rte 66",86004,4.0,Flagstaff,AZ,22380.0,-2.0,-111.625936,35.197151,2019-01-01
1054208,,Certificate,Certificate,Private For-Profit,Southwest,,,,,19200.0,9258.0,,,0.133,,0.5439,Empire Beauty School-Chandler,"Chandler, AZ - 2978 N Alma School Rd #1-3",85224,4.0,Chandler,AZ,38060.0,429.0,-111.860423,33.347586,2019-01-01
2582700,,Certificate,Certificate,Private For-Profit,Southwest,,,,,13317.0,5756.0,,,,,0.8571,Cortiva Institute-Tucson,"Tucson, AZ - 6390 E. Broadway, Suite 100",85710,4.0,Tucson,AZ,46060.0,536.0,-110.856785,32.21901,2019-01-01
1085800,,Certificate,Certificate,Private For-Profit,Southwest,,,,,16800.0,6829.0,,,0.161,,0.666,Avalon School of Cosmetology-Mesa,"Mesa, AZ - 2111 S Alma School Rd Ste 21",85210,4.0,Mesa,AZ,38060.0,429.0,-111.858305,33.376583,2019-01-01
107300,,Certificate,Associate,Public,Southwest,,,2700.0,11400.0,,869.0,8091.0,,,,0.0,Eastern Arizona College,"Thatcher, AZ - 615 N. Stadium Ave.",85552-0769,4.0,Thatcher,AZ,40940.0,-2.0,-109.76234,32.843664,2019-01-01
147902,,Bachelor,Graduate,Private Non-Profit,Southwest,0.6723,,35654.0,35654.0,,26166.0,9354.0,,0.042,,0.4735,Embry-Riddle Aeronautical University-Prescott,"Prescott, AZ - 3700 Willow Creek Road",86301-3720,4.0,Prescott,AZ,39150.0,-2.0,-112.449741,34.616766,2019-01-01
2533200,,Graduate,Graduate,Private Non-Profit,Southwest,,,,,,36215.0,4778.0,,0.0,,,School of Architecture at Taliesin,"Scottsdale, AZ - 12621 N. Frank Lloyd Wright Blvd",85259,4.0,Scottsdale,AZ,38060.0,429.0,-111.845411,33.607097,2019-01-01
107600,,Certificate,Associate,Public,Southwest,,,2070.0,7854.0,,1758.0,9055.0,,0.162,,0.1072,Glendale Community College,"Glendale, AZ - 6000 W Olive Ave",85302,4.0,Glendale,AZ,38060.0,429.0,-112.190735,33.570226,2019-01-01
107400,,Bachelor,Graduate,Private For-Profit,Southwest,0.732,,17050.0,17050.0,,11035.0,6546.0,,0.056,,0.5942,Grand Canyon University,"Phoenix, AZ - 3300 W Camelback Rd",85017,4.0,Phoenix,AZ,38060.0,429.0,-112.129929,33.513231,2019-01-01
830300,,Certificate,Associate,Public,Southwest,,,2070.0,7854.0,,2554.0,8855.0,,0.157,,0.1535,GateWay Community College,"Phoenix, AZ - 108 N. 40th Street",85034,4.0,Phoenix,AZ,38060.0,429.0,-111.997077,33.449686,2019-01-01
107700,,Certificate,Associate,Public,Southwest,,,2070.0,7854.0,,2311.0,9308.0,,0.167,,0.13,Mesa Community College,"Mesa, AZ - 1833 W Southern Ave",85202,4.0,Mesa,AZ,38060.0,429.0,-111.871255,33.390323,2019-01-01
1186400,,Associate,Associate,Public,Southwest,,,2112.0,6972.0,,2075.0,6415.0,,0.148,,0.1143,Mohave Community College,"Kingman, AZ - 1971 Jagerson Ave",86409-1238,4.0,Kingman,AZ,29420.0,-2.0,-114.029838,35.270996,2019-01-01
2100500,,Certificate,Certificate,Private For-Profit,Southwest,,,,,19450.0,9804.0,,,0.144,,0.5116,Universal Technical Institute of Arizona Inc-Motorcycle Mechanics Institute Division,"Phoenix, AZ - 2844 W Deer Valley Rd",85027,4.0,Phoenix,AZ,38060.0,429.0,-112.121336,33.684428,2019-01-01
824600,,Associate,Bachelor,Public,Southwest,,,1410.0,1410.0,,357.0,5714.0,,,,0.0,Dine College,"Tsaile, AZ - Route 12, One Circle Drive",86556,4.0,Tsaile,AZ,-2.0,-2.0,-109.21684,36.293328,2019-01-01
108200,,Bachelor,Graduate,Public,Southwest,0.8262,,11564.0,25828.0,,7767.0,8207.0,,0.066,,0.452,Northern Arizona University,"Flagstaff, AZ - 1900 S Knoles Dr, Babbitt Administrative Center, Room 200",86011-4092,4.0,Flagstaff,AZ,22380.0,-2.0,-111.653724,35.188449,2019-01-01
1186200,,Certificate,Associate,Public,Southwest,,,1866.0,8610.0,,1347.0,6141.0,,,,0.0,Northland Pioneer College,"Holbrook, AZ - 2251 E. Navajo Blvd.",86025-0610,4.0,Holbrook,AZ,43320.0,-2.0,-110.142199,34.93031,2019-01-01
193701,,Bachelor,Graduate,Private Non-Profit,Southwest,,,,,,7552.0,6871.0,,0.068,,0.6824,Ottawa University-Phoenix,"Phoenix, AZ - 9414 North 25th Avenue",85021,4.0,Phoenix,AZ,38060.0,429.0,-112.113001,33.572173,2019-01-01
107800,,Certificate,Associate,Public,Southwest,,,2070.0,7854.0,,1708.0,8921.0,,0.178,,0.1331,Phoenix College,"Phoenix, AZ - 1202 W Thomas Rd",85013,4.0,Phoenix,AZ,38060.0,429.0,-112.088293,33.481361,2019-01-01
2623800,,Certificate,Certificate,Private For-Profit,Southwest,,,,,14642.0,9195.0,,,,,0.8832,Cortiva Institute-Scottsdale,"Scottsdale, AZ - 8010 East McDowell Road #214",85257,4.0,Scottsdale,AZ,38060.0,429.0,-111.90807,33.466153,2019-01-01
726600,,Certificate,Associate,Public,Southwest,,,2142.0,7458.0,,2036.0,5380.0,,0.186,,0.0952,Pima Community College,"Tucson, AZ - 4905C East  Broadway Blvd.",85709-1275,4.0,Tucson,AZ,46060.0,536.0,-110.886659,32.222125,2019-01-01
2217100,,Certificate,Bachelor,Private For-Profit,Southwest,,,,,13377.0,6906.0,5157.0,,0.07,,0.7123,Pima Medical Institute-Tucson,"Tucson, AZ - 2121 N Craycroft Road, Bldg 1",85712,4.0,Tucson,AZ,46060.0,536.0,-110.878783,32.248067,2019-01-01
2217103,,Certificate,Associate,Private For-Profit,Southwest,,,,,13377.0,6854.0,5019.0,,0.07,,0.7128,Pima Medical Institute-Albuquerque,"Albuquerque, NM - 4400 Cutler Avenue NE",87110,35.0,Albuquerque,NM,10740.0,106.0,-106.59488,35.104855,2019-01-01
2065300,,Bachelor,Graduate,Private Non-Profit,Southwest,0.9516,,31485.0,31485.0,,15965.0,5286.0,,0.069,,0.6534,Prescott College,"Prescott, AZ - 220 Grove Ave",86301,4.0,Prescott,AZ,39150.0,-2.0,-112.477185,34.5452,2019-01-01
1168900,,Certificate,Associate,Private For-Profit,Southwest,,,,,19924.0,9343.0,4239.0,,0.085,,0.62,Refrigeration School Inc,"Phoenix, AZ - 4210 E Washington Street",85034-1816,4.0,Phoenix,AZ,38060.0,429.0,-111.989357,33.448692,2019-01-01
2177500,,Certificate,Associate,Public,Southwest,,,2070.0,7854.0,,2641.0,6182.0,,0.18,,0.1037,Rio Salado College,"Tempe, AZ - 2323 W 14th St",85281,4.0,Tempe,AZ,38060.0,429.0,-111.97417,33.413309,2019-01-01
2113800,,Certificate,Certificate,Private For-Profit,Southwest,,,,,10950.0,11621.0,,,0.07,,0.4255,Roberto-Venn School of Luthiery,"Phoenix, AZ - 1012 NW Grand Ave",85007,4.0,Phoenix,AZ,38060.0,429.0,-112.086161,33.45489,2019-01-01
830400,,Associate,Associate,Public,Southwest,,,2070.0,7854.0,,2426.0,9120.0,,0.146,,0.1017,Scottsdale Community College,"Scottsdale, AZ - 9000 E Chaparral Rd",85256,4.0,Scottsdale,AZ,38060.0,429.0,-111.885186,33.51135,2019-01-01
2146600,,Associate,Associate,Public,Southwest,,,2070.0,7854.0,,1289.0,9028.0,,0.203,,0.1294,South Mountain Community College,"Phoenix, AZ - 7050 S 24th St",85042,4.0,Phoenix,AZ,38060.0,429.0,-112.032635,33.382406,2019-01-01
711300,,Bachelor,Bachelor,Private Non-Profit,Southwest,0.5644,,26796.0,26796.0,,11155.0,4607.0,,0.121,1032.0,0.5763,Arizona Christian University,"Glendale, AZ - 1 W. Firestorm Way",85306-3216,4.0,Glendale,AZ,38060.0,429.0,-112.181776,33.622952,2019-01-01
822100,,Associate,Associate,Private For-Profit,Southwest,,,,,45950.0,13602.0,5214.0,,0.148,,0.6197,Universal Technical Institute of Arizona Inc,"Avondale, AZ - 10695 West Pierce Street",85323,4.0,Avondale,AZ,38060.0,429.0,-112.288123,33.453005,2019-01-01
945915,,Certificate,Certificate,Private For-Profit,Southwest,,,,,19200.0,9302.0,,,0.152,,0.5367,Empire Beauty School-NW Phoenix,"Phoenix, AZ - 2727 W. Glendale Ave. #200",85051,4.0,Phoenix,AZ,38060.0,429.0,-112.118168,33.538093,2019-01-01
107900,,Certificate,Associate,Public,Southwest,,,2360.0,8998.0,,2234.0,7392.0,,0.224,,0.0836,Yavapai College,"Prescott, AZ - 1100 E Sheldon St",86301,4.0,Prescott,AZ,39150.0,-2.0,-112.453395,34.547495,2019-01-01
110100,,Bachelor,Graduate,Public,Southeast,0.7933,,9544.0,21754.0,,5354.0,7623.0,,0.085,1099.0,0.405,University of Arkansas at Little Rock,"Little Rock, AR - 2801 S University Ave",72204,5.0,Little Rock,AR,30780.0,340.0,-92.339778,34.723254,2019-01-01
110900,,Bachelor,Graduate,Public,Southeast,,,,,,18147.0,9396.0,,0.017,,0.6068,University of Arkansas for Medical Sciences,"Little Rock, AR - 4301 W Markham",72205-7199,5.0,Little Rock,AR,30780.0,340.0,-92.320046,34.749048,2019-01-01
108700,,Associate,Bachelor,Private Non-Profit,Southeast,,,8760.0,8760.0,,8924.0,4407.0,,0.356,,0.7555,Arkansas Baptist College,"Little Rock, AR - 1600 Dr. Martin Luther King Jr. Drive",72202-6068,5.0,Little Rock,AR,30780.0,340.0,-92.290555,34.734751,2019-01-01
3005100,,Certificate,Certificate,Private For-Profit,Southeast,,,,,18690.0,3327.0,,,0.064,,0.6227,Arkansas Beauty School-Little Rock,"Little Rock, AR - 8521 Geyer Springs Road Unit 30",72209,5.0,Little Rock,AR,30780.0,340.0,-92.343366,34.672171,2019-01-01
3997300,,Certificate,Certificate,Private For-Profit,Southeast,,,,,14400.0,11597.0,,,0.093,,0.65,Arkansas Beauty College,"Russellville, AR - 109 N Commerce St",72801,5.0,Russellville,AR,40780.0,-2.0,-93.135369,35.27902,2019-01-01
108800,,Bachelor,Bachelor,Private Non-Profit,Southeast,0.4986,,28790.0,28790.0,,9961.0,6655.0,,0.114,1195.0,0.5863,Lyon College,"Batesville, AR - 2300 Highland Road",72501,5.0,Batesville,AR,12900.0,-2.0,-91.625354,35.777619,2019-01-01
3023400,,Certificate,Certificate,Private For-Profit,Southeast,,,,,18400.0,8666.0,,,0.208,,0.6197,Arkansas College of Barbering and Hair Design,"North Little Rock, AR - 200 E Washington Ave",72114,5.0,North Little Rock,AR,30780.0,340.0,-92.266429,34.753843,2019-01-01
2363500,,Certificate,Certificate,Private For-Profit,Southeast,,,,,12980.0,8232.0,,,0.107,,0.6167,Arthur's Beauty College Inc-Fort Smith,"Fort Smith, AR - 2000 North B St",72901-3342,5.0,Fort Smith,AR,22900.0,-2.0,-94.410967,35.379955,2019-01-01
110800,,Bachelor,Graduate,Public,Southeast,0.7747,,9130.0,25168.0,,9627.0,9866.0,,0.049,1238.0,0.3739,University of Arkansas,"Fayetteville, AR - Administration Bldg 425",72701,5.0,Fayetteville,AR,22220.0,-2.0,-94.176981,36.070009,2019-01-01
108600,,Bachelor,Graduate,Public,Southeast,0.4435,,8038.0,14398.0,,4113.0,5894.0,,0.173,978.0,0.6718,University of Arkansas at Pine Bluff,"Pine Bluff, AR - 1200 N University Mail Slot 4789",71601,5.0,Pine Bluff,AR,38220.0,340.0,-92.018683,34.244031,2019-01-01
109100,,Certificate,Associate,Public,Southeast,,,2880.0,4608.0,,2236.0,5040.0,,0.08,,0.1289,Arkansas State University-Beebe,"Beebe, AR - 1000 Iowa Street",72012-1000,5.0,Beebe,AR,42620.0,340.0,-91.895351,35.074176,2019-01-01
109000,,Bachelor,Graduate,Public,Southeast,0.7721,,8607.0,15297.0,,4037.0,6902.0,,0.059,1189.0,0.5104,Arkansas State University-Main Campus,"Jonesboro, AR - 2105 E. Aggie Road",72401,5.0,Jonesboro,AR,27860.0,308.0,-90.679988,35.842388,2019-01-01
109000,,Bachelor,Graduate,Public,Southeast,0.7721,,8607.0,15297.0,,4037.0,6902.0,,0.059,1189.0,0.5104,Arkansas State University System,"Little Rock, AR - 501 Woodlane Drive, Suite 600",72201,5.0,Little Rock,AR,30780.0,340.0,-92.28758,34.74582,2019-01-01
108900,,Bachelor,Graduate,Public,Southeast,0.9024,,7254.0,12678.0,,4725.0,6833.0,,0.091,,0.4117,Arkansas Tech University,"Russellville, AR - Administration Bldg 200; 1509 N Boulder Ave",72801-2222,5.0,Russellville,AR,40780.0,-2.0,-93.13562,35.293237,2019-01-01
108500,,Certificate,Graduate,Public,Southeast,,,7462.0,13312.0,,4182.0,5696.0,,0.144,,0.6014,University of Arkansas at Monticello,"Monticello, AR - Highway 425 South",71656,5.0,Monticello,AR,-2.0,-2.0,-91.811153,33.590909,2019-01-01
2538500,,Certificate,Certificate,Private For-Profit,Southeast,,,,,12980.0,9522.0,,,0.077,,0.5595,Arthur's Beauty College Inc-Jacksonville,"Jacksonville, AR - 2600 John Harden Dr",72076,5.0,Jacksonville,AR,30780.0,340.0,-92.102579,34.891572,2019-01-01
3105200,,Associate,Associate,Private Non-Profit,Southeast,0.6667,,10439.0,10439.0,,4647.0,6569.0,,0.043,1015.0,0.8077,Baptist Health College Little Rock,"Little Rock, AR - 11900 COLONEL GLENN RD STE 1000",72210-2827,5.0,Little Rock,AR,30780.0,340.0,-92.40692,34.713115,2019-01-01
2052200,,Certificate,Associate,Public,Southeast,,,3168.0,5448.0,,2408.0,4934.0,,0.116,,0.2072,Black River Technical College,"Pocahontas, AR - 1410 Hwy 304 East",72455,5.0,Pocahontas,AR,-2.0,-2.0,-90.951033,36.239793,2019-01-01
109200,,Bachelor,Graduate,Public,Southeast,0.911,,8752.0,15275.0,,5495.0,7040.0,,0.075,1186.0,0.5234,University of Central Arkansas,"Conway, AR - 201 Donaghey Ave",72035-0001,5.0,Conway,AR,30780.0,340.0,-92.457672,35.077945,2019-01-01
109300,,Bachelor,Bachelor,Private Non-Profit,Southeast,0.6074,,16200.0,16200.0,,9880.0,5448.0,,0.098,1004.0,0.6094,Central Baptist College,"Conway, AR - 1501 College Avenue",72034,5.0,Conway,AR,30780.0,340.0,-92.445021,35.083838,2019-01-01
2220900,,Certificate,Associate,Public,Southeast,,,3450.0,4290.0,,2267.0,5087.0,,,,0.0,Cossatot Community College of the University of Arkansas,"De Queen, AR - 183 College Drive",71832,5.0,De Queen,AR,-2.0,-2.0,-94.3673,34.043389,2019-01-01
109500,,Bachelor,Bachelor,Private Non-Profit,Southeast,,,13600.0,13600.0,,7608.0,4175.0,,0.159,,0.7196,Crowley's Ridge College,"Paragould, AR - 100 College Dr",72450,5.0,Paragould,AR,37500.0,308.0,-90.584395,36.064845,2019-01-01
704400,,Certificate,Certificate,Public,Southeast,,,1350.0,1350.0,,447.0,,,,,0.0,Crowley's Ridge Technical Institute,"Forrest City, AR - 1620 Newcastle Road",72335-0925,5.0,Forrest City,AR,22620.0,368.0,-90.767321,35.039816,2019-01-01
1226000,,Certificate,Associate,Public,Southeast,,,2880.0,3720.0,,2535.0,4755.0,,0.095,,0.0469,East Arkansas Community College,"Forrest City, AR - 1700 Newcastle Rd",72335-2204,5.0,Forrest City,AR,22620.0,368.0,-90.767726,35.041655,2019-01-01
2272400,,Certificate,Certificate,Private For-Profit,Southeast,,,,,10700.0,3815.0,,,0.198,,0.8886,Eastern College of Health Vocations-Little Rock,"Little Rock, AR - 200 South University Avenue",72205,5.0,Little Rock,AR,30780.0,340.0,-92.341891,34.75128,2019-01-01
3124900,,Certificate,Certificate,Private For-Profit,Southeast,,,,,15500.0,10217.0,,,0.176,,0.6989,Imagine-Paul Mitchell Partner School,"North Little Rock, AR - 4201 E McCain Blvd",72117,5.0,North Little Rock,AR,30780.0,340.0,-92.222202,34.789913,2019-01-01
1210500,,Certificate,Associate,Public,Southeast,,,3750.0,5300.0,,2355.0,5258.0,,0.127,,0.3396,National Park College,"Hot Springs, AR - 101 College Dr",71913,5.0,Hot Springs,AR,26300.0,284.0,-93.119248,34.512687,2019-01-01
2073500,,Certificate,Associate,Public,Southeast,,,2482.0,3274.0,,1167.0,4339.0,,0.093,,0.1717,University of Arkansas Community College-Batesville,"Batesville, AR - 2005 White Drive",72503-3350,5.0,Batesville,AR,12900.0,-2.0,-91.615852,35.792923,2019-01-01
109700,,Bachelor,Graduate,Private Non-Profit,Southeast,0.7462,,19845.0,19845.0,,14806.0,7473.0,,0.038,1222.0,0.5397,Harding University,"Searcy, AR - 915 E. Market Ave.",72149-5615,5.0,Searcy,AR,42620.0,340.0,-91.726143,35.247386,2019-01-01
109800,,Bachelor,Graduate,Public,Southeast,0.9055,,8530.0,10180.0,,3495.0,6703.0,,0.073,1116.0,0.5325,Henderson State University,"Arkadelphia, AR - 1100 Henderson Street",71999-0001,5.0,Arkadelphia,AR,11660.0,-2.0,-93.059703,34.128155,2019-01-01
109900,,Bachelor,Graduate,Private Non-Profit,Southeast,0.7217,,45790.0,45790.0,,10750.0,7708.0,,0.034,1346.0,0.5238,Hendrix College,"Conway, AR - 1600 Washington Ave",72032-3080,5.0,Conway,AR,30780.0,340.0,-92.443256,35.101565,2019-01-01
3007100,,Certificate,Certificate,Private For-Profit,Southeast,,,,,15000.0,9231.0,,,0.064,,0.8511,Hot Springs Beauty College,"Hot Springs, AR - 100 Cones Rd",71901,5.0,Hot Springs,AR,26300.0,284.0,-93.037277,34.496057,2019-01-01
2330800,,Associate,Associate,Private Non-Profit,Southeast,,,,,,4592.0,6959.0,,0.066,,0.5625,Jefferson Regional Medical Center School of Nursing,"Pine Bluff, AR - 1600 West 40th Avenue",71603,5.0,Pine Bluff,AR,38220.0,340.0,-92.018045,34.187831,2019-01-01
110000,,Bachelor,Graduate,Private Non-Profit,Southeast,0.7715,,26928.0,26928.0,,11732.0,7049.0,,0.038,1257.0,0.4523,John Brown University,"Siloam Springs, AR - 2000 W University St",72761,5.0,Siloam Springs,AR,22220.0,-2.0,-94.560283,36.189812,2019-01-01
2341700,,Certificate,Certificate,Private For-Profit,Southeast,,,,,15944.0,11733.0,,,0.316,,0.7186,Career Academy of Hair Design,"Springdale, AR - 346 E. Robinson Ave",72764-7128,5.0,Springdale,AR,22220.0,-2.0,-94.12947,36.167605,2019-01-01
1074100,,Certificate,Certificate,Private For-Profit,Southeast,,,,,15000.0,8239.0,,,0.121,,0.7174,Academy of Salon and Spa,"Fort Smith, AR - 311 S 16th St",72901,5.0,Fort Smith,AR,22900.0,-2.0,-94.41616,35.38097,2019-01-01
2348200,,Certificate,Associate,Public,Southeast,,,2674.0,4114.0,,1879.0,4311.0,,,,0.0,Arkansas State University Mid-South,"West Memphis, AR - 2000 W.  Broadway",72301-3829,5.0,West Memphis,AR,32820.0,368.0,-90.22285,35.145736,2019-01-01
1286000,,Certificate,Associate,Public,Southeast,,,2318.0,3998.0,,1154.0,5202.0,,0.119,,0.0,Arkansas Northeastern College,"Blytheville, AR - 2501 S Division",72316-1109,5.0,Blytheville,AR,14180.0,-2.0,-89.921005,35.898597,2019-01-01
2284200,,Certificate,Certificate,Private For-Profit,Southeast,,,,,15825.0,3478.0,,,0.17,,0.3768,New Tyler Barber College Inc,"North Little Rock, AR - 1221 E 7th St",72114-4973,5.0,North Little Rock,AR,30780.0,340.0,-92.254171,34.760085,2019-01-01
1226100,,Certificate,Associate,Public,Southeast,,,2280.0,4632.0,,1108.0,5246.0,,0.13,,0.1356,North Arkansas College,"Harrison, AR - 1515 Pioneer Dr",72601-5508,5.0,Harrison,AR,25460.0,-2.0,-93.08844,36.219909,2019-01-01
2073700,,Certificate,Certificate,Public,Southeast,,,2326.0,2326.0,,2524.0,,,,,0.0,Northwest Technical Institute,"Springdale, AR - 709 S Old Missouri Rd",72764,5.0,Springdale,AR,22220.0,-2.0,-94.115346,36.178032,2019-01-01
110200,,Bachelor,Bachelor,Private Non-Profit,Southeast,0.636,,26790.0,26790.0,,10407.0,6418.0,,0.073,1193.0,0.6369,Ouachita Baptist University,"Arkadelphia, AR - 410 Ouachita St",71998-0001,5.0,Arkadelphia,AR,11660.0,-2.0,-93.052471,34.126093,2019-01-01
997600,,Certificate,Associate,Public,Southeast,,,3890.0,6800.0,,1934.0,4781.0,,0.105,,0.1863,Arkansas State University Three Rivers,"Malvern, AR - One College Circle",72104-0816,5.0,Malvern,AR,31680.0,284.0,-92.821416,34.378745,2019-01-01
2087000,,Certificate,Associate,Public,Southeast,,,3004.0,5356.0,,1155.0,4627.0,,0.115,,0.2277,Ozarka College,"Melbourne, AR - 218 College Dr",72556-0010,5.0,Melbourne,AR,-2.0,-2.0,-91.896355,36.053031,2019-01-01
109400,,Bachelor,Bachelor,Private Non-Profit,Southeast,0.5232,,24230.0,24230.0,,8782.0,6740.0,,0.15,1079.0,0.5099,University of the Ozarks,"Clarksville, AR - 415 N College Ave",72830,5.0,Clarksville,AR,-2.0,-2.0,-93.467221,35.476278,2019-01-01
524500,,Certificate,Associate,Public,Southeast,0.7415,,3140.0,4076.0,,2335.0,5033.0,,0.155,,0.2249,University of Arkansas Community College-Morrilton,"Morrilton, AR - 1537 University Blvd.",72110,5.0,Morrilton,AR,-2.0,-2.0,-92.728507,35.172136,2019-01-01
110300,,Bachelor,Bachelor,Private Non-Profit,Southeast,,,13014.0,13014.0,,7747.0,6045.0,,0.239,,0.8474,Philander Smith College,"Little Rock, AR - 900 W. Daisy Bates Drive",72202-3799,5.0,Little Rock,AR,30780.0,340.0,-92.283015,34.737131,2019-01-01
110400,,Certificate,Associate,Public,Southeast,,,2930.0,4760.0,,911.0,4883.0,,0.175,,0.0,Phillips Community College of the University of Arkansas,"Helena, AR - 1000 Campus Drive",72342-0785,5.0,Helena,AR,25760.0,-2.0,-90.616884,34.546155,2019-01-01
570700,,Certificate,Associate,Public,Southeast,,,3855.0,6735.0,,2455.0,4801.0,,0.195,,0.5065,Southeast Arkansas College,"Pine Bluff, AR - 1900 S Hazel Street",71603,5.0,Pine Bluff,AR,38220.0,340.0,-92.025936,34.210309,2019-01-01
2202400,,Certificate,Certificate,Private For-Profit,Southeast,,,,,14350.0,8071.0,,,0.147,,0.7,Professional Cosmetology Education Center,"El Dorado, AR - 460 North Washington",71730-4009,5.0,El Dorado,AR,20980.0,-2.0,-92.664101,33.216032,2019-01-01
2075300,,Associate,Associate,Public,Southeast,,,5252.0,6447.0,,3340.0,4859.0,,0.113,,0.4328,University of Arkansas-Pulaski Technical College,"North Little Rock, AR - 3000 W Scenic Dr",72118-3347,5.0,North Little Rock,AR,30780.0,340.0,-92.299184,34.782783,2019-01-01
573200,,Certificate,Associate,Public,Southeast,,,2830.0,4090.0,,1613.0,4317.0,,0.125,,0.0,University of Arkansas Hope-Texarkana,"Hope, AR - 2500 S Main",71801,5.0,Hope,AR,26260.0,-2.0,-93.596762,33.641665,2019-01-01
2111100,,Certificate,Associate,Public,Southeast,,,2880.0,3936.0,,988.0,4615.0,,,,0.0,University of Arkansas Community College Rich Mountain,"Mena, AR - 1100 College Dr",71953,5.0,Mena,AR,-2.0,-2.0,-94.219799,34.591449,2019-01-01
792100,,Certificate,Certificate,Private For-Profit,Southeast,,,,,14250.0,10517.0,,,0.13,,0.5641,Paul Mitchell the School-Arkansas,"Fayetteville, AR - 4156 N Steele Blvd",72703,5.0,Fayetteville,AR,22220.0,-2.0,-94.153892,36.126373,2019-01-01
2569600,,Certificate,Certificate,Private For-Profit,Southeast,,,,,14900.0,11872.0,,,0.083,,0.6847,Searcy Beauty College,"Searcy, AR - 1004 S Main St",72143,5.0,Searcy,AR,42620.0,340.0,-91.735135,35.239148,2019-01-01
110500,,Associate,Associate,Private Non-Profit,Southeast,,,5500.0,5500.0,,7874.0,4218.0,,0.238,,0.9827,Shorter College,"N Little Rock, AR - 604 Locust St",72114,5.0,N Little Rock,AR,30780.0,340.0,-92.261331,34.75933,2019-01-01
110600,,Bachelor,Bachelor,Private Non-Profit,Southeast,0.5639,,17320.0,17320.0,,8050.0,5355.0,,0.095,1034.0,0.6827,Williams Baptist University,"Walnut Ridge, AR - 60 W Fulbright Avenue",72476,5.0,Walnut Ridge,AR,-2.0,-2.0,-90.940277,36.125676,2019-01-01
2074600,,Certificate,Associate,Public,Southeast,,,2700.0,4812.0,,2639.0,4903.0,,0.216,,0.3059,South Arkansas Community College,"El Dorado, AR - 300 S West Ave",71731-7010,5.0,El Dorado,AR,20980.0,-2.0,-92.666087,33.209446,2019-01-01
110700,,Bachelor,Graduate,Public,Southeast,0.6878,,8756.0,12866.0,,4716.0,6861.0,,0.159,1105.0,0.7603,Southern Arkansas University Main Campus,"Magnolia, AR - 100 E. University",71753,5.0,Magnolia,AR,31620.0,-2.0,-93.235922,33.291618,2019-01-01
773800,,Certificate,Associate,Public,Southeast,,,4977.0,6417.0,,1984.0,4239.0,,0.205,,0.1129,Southern Arkansas University Tech,"Camden, AR - 6415 Spellman Road",71701-1906,5.0,Camden,AR,15780.0,-2.0,-92.721629,33.628367,2019-01-01
3214300,,Certificate,Certificate,Private For-Profit,Southeast,,,,,13712.0,19273.0,,,,,0.6,Velvatex College of Beauty Culture,"Little Rock, AR - 1520 Martin Luther King Dr",72202-5452,5.0,Little Rock,AR,30780.0,340.0,-92.289597,34.735685,2019-01-01
111000,,Bachelor,Graduate,Public,Southeast,,,5593.0,12666.0,,3377.0,6921.0,,0.164,,0.3656,University of Arkansas-Fort Smith,"Fort Smith, AR - 5210 Grand Ave",72913-3649,5.0,Fort Smith,AR,22900.0,-2.0,-94.373729,35.384184,2019-01-01
753100,,Bachelor,Graduate,Private For-Profit,Far West,,,22308.0,22308.0,,31908.0,8492.0,,0.058,,0.4586,Academy of Art University,"San Francisco, CA - 79 New Montgomery",94105,6.0,San Francisco,CA,41860.0,488.0,-122.400578,37.787943,2019-01-01
3288300,,Graduate,Graduate,Private Non-Profit,Far West,,,,,,8320.0,,,0.0,,,Academy of Chinese Culture and Health Sciences,"Oakland, CA - 1600 Broadway, Ste. 200",94612,6.0,Oakland,CA,41860.0,488.0,-122.269839,37.805972,2019-01-01
2342400,,Certificate,Certificate,Private For-Profit,Far West,,,,,15600.0,16236.0,,,0.311,,1.0,The Academy of Radio and TV Broadcasting,"Huntington Beach, CA - 16052 Beach Blvd St 263n",92647,6.0,Huntington Beach,CA,31080.0,348.0,-117.987762,33.729535,2019-01-01
2258600,,Certificate,Certificate,Private For-Profit,Far West,,,,,19600.0,6346.0,,,0.244,,0.5688,Avalon School of Cosmetology-Alameda,"Alameda, CA - 2318 Central Avenue",94501,6.0,Alameda,CA,41860.0,488.0,-122.243566,37.764203,2019-01-01
672000,,Associate,Associate,Public,Far West,,,1254.0,7806.0,,1078.0,8521.0,,0.074,,0.0068,College of Alameda,"Alameda, CA - 555 Ralph Appezzato Memorial Pky",94501,6.0,Alameda,CA,41860.0,488.0,-122.279303,37.781017,2019-01-01
111100,,Associate,Associate,Public,Far West,,,1352.0,6784.0,,659.0,8493.0,,0.131,,0.0135,Allan Hancock College,"Santa Maria, CA - 800 South College Drive",93454-6399,6.0,Santa Maria,CA,42200.0,-2.0,-120.421144,34.943716,2019-01-01
746501,,Associate,Associate,Private Non-Profit,Far West,0.7892,,35160.0,35160.0,,26205.0,8933.0,,0.099,,0.5107,American Academy of Dramatic Arts-Los Angeles,"Los Angeles, CA - 1336 North La Brea Avenue",90028,6.0,Los Angeles,CA,31080.0,348.0,-118.343701,34.095378,2019-01-01
112000,,Graduate,Graduate,Private Non-Profit,Far West,,,,,,9305.0,5493.0,,0.047,,,American Baptist Seminary of the West,"Berkeley, CA - 2606 Dwight Way",94704-3029,6.0,Berkeley,CA,41860.0,488.0,-122.256149,37.865252,2019-01-01
2222000,,Graduate,Graduate,Private Non-Profit,Far West,,,,,,35423.0,8047.0,,0.017,,,American Film Institute Conservatory,"Los Angeles, CA - 2021 N Western Ave",90027-1625,6.0,Los Angeles,CA,31080.0,348.0,-118.310018,34.10767,2019-01-01
1307400,,Certificate,Certificate,Private For-Profit,Far West,,,,,17600.0,5869.0,,,0.057,,0.4792,American Beauty College,"West Covina, CA - 646 S. Sunset Ave",91790,6.0,West Covina,CA,31080.0,348.0,-117.936959,34.069367,2019-01-01
2241800,,Certificate,Associate,Private For-Profit,Far West,,,,,18200.0,16044.0,5945.0,,0.036,,0.5711,American Career College-Los Angeles,"Los Angeles, CA - 4021 Rosewood Avenue",90004,6.0,Los Angeles,CA,31080.0,348.0,-118.292481,34.079323,2019-01-01
2099200,,Certificate,Graduate,Private Non-Profit,Far West,,,29560.0,29560.0,,27255.0,4665.0,,0.035,,0.0769,American Conservatory Theater,"San Francisco, CA - 30 Grant Ave",94108-5834,6.0,San Francisco,CA,41860.0,488.0,-122.40475,37.787343,2019-01-01
123200,,Certificate,Associate,Public,Far West,,,1104.0,8712.0,,604.0,8443.0,,0.173,,0.03,American River College,"Sacramento, CA - 4700 College Oak Dr",95841-4286,6.0,Sacramento,CA,40900.0,472.0,-121.349672,38.65085,2019-01-01
111300,,Associate,Associate,Public,Far West,,,1124.0,6500.0,,436.0,8808.0,,0.216,,0.1157,Antelope Valley College,"Lancaster, CA - 3041 West  Ave K",93536-5426,6.0,Lancaster,CA,31080.0,348.0,-118.186166,34.676207,2019-01-01
111600,,Bachelor,Graduate,Private Non-Profit,Far West,0.6765,,43416.0,43416.0,,34648.0,7776.0,,0.048,,0.4843,Art Center College of Design,"Pasadena, CA - 1700 Lida St",91103,6.0,Pasadena,CA,31080.0,348.0,-118.185102,34.169031,2019-01-01
902200,,Certificate,Certificate,Private For-Profit,Far West,,,,,17000.0,16074.0,,,0.169,,0.4877,Associated Technical College-Los Angeles,"Los Angeles, CA - 1670 Wilshire Blvd",90017-1604,6.0,Los Angeles,CA,31080.0,348.0,-118.272364,34.056102,2019-01-01
2553500,,Certificate,Certificate,Private For-Profit,Far West,,,,,17000.0,13093.0,,,0.274,,0.5692,Associated Technical College-San Diego,"San Diego, CA - 707 Broadway-Ste 300",92101,6.0,San Diego,CA,41740.0,-2.0,-117.157988,32.715375,2019-01-01
111700,,Bachelor,Graduate,Private Non-Profit,Far West,0.6851,,38880.0,38880.0,,19919.0,9160.0,,0.03,1147.0,0.5438,Azusa Pacific University,"Azusa, CA - 901 E Alosta",91702-7000,6.0,Azusa,CA,31080.0,348.0,-117.888375,34.130047,2019-01-01
111800,,Certificate,Bachelor,Public,Far West,,,1325.0,7261.0,,514.0,10776.0,,0.151,,0.0155,Bakersfield College,"Bakersfield, CA - 1801 Panorama Dr",93305-1299,6.0,Bakersfield,CA,12540.0,-2.0,-118.973753,35.40911,2019-01-01
111900,,Associate,Associate,Public,Far West,,,1104.0,6720.0,,412.0,9621.0,,,,0.0,Barstow Community College,"Barstow, CA - 2700 Barstow Road",92311,6.0,Barstow,CA,40140.0,348.0,-117.023412,34.870285,2019-01-01
705000,,Certificate,Certificate,Private For-Profit,Far West,,,,,24070.0,12137.0,,,0.072,,0.5863,Bellus Academy-Chula Vista,"Chula Vista, CA - 970 Broadway, Suite 110",91911,6.0,Chula Vista,CA,41740.0,-2.0,-117.083738,32.614773,2019-01-01
3266300,,Bachelor,Graduate,Private Non-Profit,Far West,,,8095.0,8095.0,,6413.0,,,0.081,,0.2761,Bethesda University,"Anaheim, CA - 730 N. Euclid St",92801,6.0,Anaheim,CA,31080.0,348.0,-117.941323,33.842295,2019-01-01
112200,,Bachelor,Graduate,Private Non-Profit,Far West,0.7347,,40488.0,40488.0,,22560.0,9348.0,,0.02,1170.0,0.5925,Biola University,"La Mirada, CA - 13800 Biola Ave",90639-0001,6.0,La Mirada,CA,31080.0,348.0,-118.014374,33.906203,2019-01-01
2543400,,Certificate,Certificate,Private For-Profit,Far West,,,,,16295.0,10058.0,,,0.026,,0.7622,Brownson Technical School,"Anaheim, CA - 1110 Technology Cir Ste D",92805,6.0,Anaheim,CA,31080.0,348.0,-117.905774,33.819032,2019-01-01
716400,,Associate,Bachelor,Private For-Profit,Southwest,,,11025.0,11025.0,,15165.0,4967.0,,0.124,,0.737,Bryan University,"Tempe, AZ - 350 W Washington St",85281,4.0,Tempe,AZ,38060.0,429.0,-111.944197,33.437779,2019-01-01
807300,,Associate,Associate,Public,Far West,,,1368.0,6984.0,,994.0,8846.0,,0.179,,0.0622,Butte College,"Oroville, CA - 3536 Butte Campus Drive",95965-8399,6.0,Oroville,CA,17020.0,-2.0,-121.644831,39.649782,2019-01-01
1215400,,Bachelor,Graduate,Private Non-Profit,Far West,,,,,,25180.0,8314.0,,0.034,,0.8,California Institute of Integral Studies,"San Francisco, CA - 1453 Mission Street",94103,6.0,San Francisco,CA,41860.0,488.0,-122.416102,37.774924,2019-01-01
112400,,Associate,Associate,Public,Far West,,,1270.0,7462.0,,1318.0,8082.0,,0.177,,0.0172,Cabrillo College,"Aptos, CA - 6500 Soquel Dr",95003,6.0,Aptos,CA,42100.0,488.0,-121.924797,36.989448,2019-01-01
112500,,Bachelor,Graduate,Private Non-Profit,Far West,0.7955,,33478.0,33478.0,,18673.0,9674.0,,0.045,1103.0,0.6968,California Baptist University,"Riverside, CA - 8432 Magnolia Ave",92504-3297,6.0,Riverside,CA,40140.0,348.0,-117.425619,33.929321,2019-01-01
112700,,Bachelor,Graduate,Private Non-Profit,Far West,0.8818,,49138.0,49138.0,,30596.0,9662.0,,0.029,,0.4845,California College of the Arts,"San Francisco, CA - 1111 Eighth Street",94107-2247,6.0,San Francisco,CA,41860.0,488.0,-122.399451,37.767485,2019-01-01
394700,,Graduate,Graduate,Public,Far West,,,,,,22938.0,17286.0,,0.01,,,University of California-Hastings College of Law,"San Francisco, CA - 200 McAllister Street",94102-4978,6.0,San Francisco,CA,41860.0,488.0,-122.4157,37.781137,2019-01-01
113100,,Bachelor,Graduate,Private Non-Profit,Far West,0.0662,,52362.0,52362.0,,19078.0,19993.0,,0.0,1566.0,0.0468,California Institute of Technology,"Pasadena, CA - 1200 E California Blvd",91125,6.0,Pasadena,CA,31080.0,348.0,-118.125878,34.137349,2019-01-01
113300,,Bachelor,Graduate,Private Non-Profit,Far West,0.7147,,42692.0,42692.0,,19499.0,9974.0,,0.03,1163.0,0.5461,California Lutheran University,"Thousand Oaks, CA - 60 W Olsen Rd",91360-2787,6.0,Thousand Oaks,CA,37100.0,348.0,-118.878924,34.224566,2019-01-01
114300,,Bachelor,Graduate,Public,Far West,0.3017,,9816.0,21696.0,,9068.0,10335.0,,0.009,1339.0,0.304,California Polytechnic State University-San Luis Obispo,"San Luis Obispo, CA - 1 Grand Ave.",93407,6.0,San Luis Obispo,CA,42020.0,-2.0,-120.657311,35.299513,2019-01-01
1111700,,Certificate,Graduate,Private For-Profit,Far West,1.0,,14600.0,14600.0,,18708.0,8689.0,,0.03,,0.0779,Alliant International University-San Diego,"San Diego, CA - 10455 Pomerado Road",92131,6.0,San Diego,CA,41740.0,-2.0,-117.094398,32.897056,2019-01-01
799300,,Bachelor,Graduate,Public,Far West,0.6051,,7309.0,19189.0,,3321.0,9585.0,,0.067,,0.3422,California State University-Bakersfield,"Bakersfield, CA - 9001 Stockdale Hwy",93311-1099,6.0,Bakersfield,CA,12540.0,-2.0,-119.104711,35.350005,2019-01-01
115700,,Bachelor,Graduate,Public,Far West,0.8582,,7072.0,18952.0,,4680.0,9475.0,,0.044,,0.3542,California State University-Stanislaus,"Turlock, CA - One University Circle",95382-0299,6.0,Turlock,CA,33700.0,488.0,-120.852511,37.52577,2019-01-01
114200,,Bachelor,Graduate,Public,Far West,0.5483,,6922.0,18802.0,,3622.0,9779.0,,0.057,991.0,0.3513,California State University-San Bernardino,"San Bernardino, CA - 5500 University Parkway",92407-2393,6.0,San Bernardino,CA,40140.0,348.0,-117.323801,34.182622,2019-01-01
114400,,Bachelor,Graduate,Public,Far West,0.5515,,7353.0,19233.0,,4699.0,10587.0,,0.029,1143.0,0.3205,California State Polytechnic University-Pomona,"Pomona, CA - 3801 West Temple Avenue",91768,6.0,Pomona,CA,31080.0,348.0,-117.821476,34.057912,2019-01-01
114600,,Bachelor,Graduate,Public,Far West,0.6526,,7608.0,19488.0,,4242.0,9723.0,,0.051,1092.0,0.4528,California State University-Chico,"Chico, CA - First and Normal Sts",95929-0150,6.0,Chico,CA,17020.0,-2.0,-121.844859,39.729712,2019-01-01
114100,,Bachelor,Graduate,Public,Far West,0.6394,,6942.0,18822.0,,3854.0,9752.0,,0.057,,0.3061,California State University-Dominguez Hills,"Carson, CA - 1000 E Victoria St",90747-0005,6.0,Carson,CA,31080.0,348.0,-118.255917,33.864766,2019-01-01
114700,,Bachelor,Graduate,Public,Far West,0.5753,,6587.0,18467.0,,3735.0,9393.0,,0.05,1019.0,0.3029,California State University-Fresno,"Fresno, CA - 5241 N Maple Ave",93740,6.0,Fresno,CA,23420.0,260.0,-119.744569,36.811154,2019-01-01
113700,,Bachelor,Graduate,Public,Far West,0.4341,,6886.0,18766.0,,5172.0,10201.0,,0.026,1124.0,0.285,California State University-Fullerton,"Fullerton, CA - 800 N State College Blvd",92831-3599,6.0,Fullerton,CA,31080.0,348.0,-117.885446,33.881506,2019-01-01
113800,,Bachelor,Graduate,Public,Far West,0.716,,6983.0,18863.0,,5794.0,10210.0,,0.054,,0.3254,California State University-East Bay,"Hayward, CA - 25800 Carlos Bee Blvd",94542,6.0,Hayward,CA,41860.0,488.0,-122.054135,37.657694,2019-01-01
113900,,Bachelor,Graduate,Public,Far West,0.3121,,6798.0,18678.0,,4721.0,10192.0,,0.023,1146.0,0.323,California State University-Long Beach,"Long Beach, CA - 1250 Bellflower Blvd",90840-0115,6.0,Long Beach,CA,31080.0,348.0,-118.11204,33.782818,2019-01-01
114000,,Bachelor,Graduate,Public,Far West,0.4152,,6749.0,18629.0,,3656.0,9827.0,,0.043,978.0,0.2927,California State University-Los Angeles,"Los Angeles, CA - 5151 State University Dr",90032-8506,6.0,Los Angeles,CA,31080.0,348.0,-118.168965,34.066927,2019-01-01
115300,,Bachelor,Graduate,Public,Far West,0.5063,,6893.0,18773.0,,4673.0,10090.0,,0.037,1027.0,0.2958,California State University-Northridge,"Northridge, CA - 18111 Nordhoff St",91330,6.0,Northridge,CA,31080.0,348.0,-118.529319,34.240126,2019-01-01
115000,,Bachelor,Graduate,Public,Far West,0.6386,,7310.0,19190.0,,4931.0,9804.0,,0.047,1030.0,0.3397,California State University-Sacramento,"Sacramento, CA - 6000 J St",95819-2694,6.0,Sacramento,CA,40900.0,472.0,-121.423549,38.559415,2019-01-01
131200,,Bachelor,Graduate,Public,Far West,0.1484,,14184.0,43176.0,,22027.0,17125.0,,0.02,1448.0,0.218,University of California-Berkeley,"Berkeley, CA - 200 California Hall",94720,6.0,Berkeley,CA,41860.0,488.0,-122.260463,37.871918,2019-01-01
131300,,Bachelor,Graduate,Public,Far West,0.4107,,14402.0,43394.0,,18270.0,14603.0,,0.016,1292.0,0.3359,University of California-Davis,"Davis, CA - One Shields Avenue",95616-8678,6.0,Davis,CA,40900.0,472.0,-121.749567,38.539667,2019-01-01
131400,,Bachelor,Graduate,Public,Far West,0.2876,,13700.0,42692.0,,15954.0,15447.0,,0.017,1316.0,0.3464,University of California-Irvine,"Irvine, CA - 501 Aldrich Hall",92697,6.0,Irvine,CA,31080.0,348.0,-117.841248,33.648434,2019-01-01
131500,,Bachelor,Graduate,Public,Far West,0.1404,,13226.0,42218.0,,18278.0,18392.0,,0.013,1423.0,0.3169,University of California-Los Angeles,"Los Angeles, CA - 405 Hilgard Ave",90095-1405,6.0,Los Angeles,CA,31080.0,348.0,-118.443901,34.068892,2019-01-01
131600,,Bachelor,Graduate,Public,Far West,0.5057,,13827.0,42819.0,,12688.0,13408.0,,0.028,1229.0,0.475,University of California-Riverside,"Riverside, CA - 900 University Ave",92521,6.0,Riverside,CA,40140.0,348.0,-117.32741,33.97246,2019-01-01
131700,,Bachelor,Graduate,Public,Far West,0.3006,,14167.0,43159.0,,17532.0,16373.0,,0.017,1372.0,0.3554,University of California-San Diego,"La Jolla, CA - 9500 Gilman Dr",92093,6.0,La Jolla,CA,41740.0,-2.0,-117.235866,32.877749,2019-01-01
131900,,Graduate,Graduate,Public,Far West,,,,,,19137.0,15176.0,,0.004,,,University of California-San Francisco,"San Francisco, CA - 500 Parnassus Ave",94143-0244,6.0,San Francisco,CA,41860.0,488.0,-122.458489,37.763737,2019-01-01
132000,,Bachelor,Graduate,Public,Far West,0.322,,14391.0,43383.0,,15451.0,15994.0,,0.023,1360.0,0.3452,University of California-Santa Barbara,"Santa Barbara, CA - 5221 Cheadle Hall",93106,6.0,Santa Barbara,CA,42200.0,-2.0,-119.846426,34.416297,2019-01-01
132100,,Bachelor,Graduate,Public,Far West,0.4737,,13960.0,42952.0,,14448.0,14426.0,,0.037,1311.0,0.4232,University of California-Santa Cruz,"Santa Cruz, CA - 1156 High St",95064-1011,6.0,Santa Cruz,CA,42100.0,488.0,-122.058801,36.995584,2019-01-01
2267600,,Bachelor,Graduate,Private For-Profit,Far West,,,,,,23445.0,6194.0,,0.043,,0.6364,Sofia University,"Palo Alto, CA - 1069 East Meadow Cr",94303,6.0,Palo Alto,CA,41940.0,488.0,-122.10866,37.430325,2019-01-01
2065700,,Certificate,Certificate,Private For-Profit,Far West,,,,,16900.0,10808.0,,,0.026,,0.4885,California Beauty School,"Modesto, CA - 1115 15th St",95354,6.0,Modesto,CA,33700.0,488.0,-120.99689,37.645217,2019-01-01
884400,,Bachelor,Bachelor,Private Non-Profit,Far West,1.0,,9570.0,9570.0,,7352.0,,,0.153,,0.5,California Christian College,"Fresno, CA - 5364 E. Belmont Avenue",93727,6.0,Fresno,CA,23420.0,260.0,-119.711123,36.749366,2019-01-01
4127600,,NA,NA,Private For-Profit,Far West,,,4500.0,4500.0,,,,,,,,,"nan, nan - nan",,,,,,,,,2019-01-01
1186500,,Certificate,Certificate,Private For-Profit,Far West,,,,,17995.0,6184.0,,,0.078,,0.3378,California Hair Design Academy,"La Mesa, CA - 8011 University Avenue, Suite A-2",91942-5055,6.0,La Mesa,CA,41740.0,-2.0,-117.024261,32.765221,2019-01-01
113200,,Bachelor,Graduate,Private Non-Profit,Far West,0.2297,,49276.0,49276.0,,28168.0,8825.0,,0.05,,0.4735,California Institute of the Arts,"Valencia, CA - 24700 W McBean Pky",91355-2397,6.0,Valencia,CA,31080.0,348.0,-118.566837,34.39327,2019-01-01
113400,,Bachelor,Graduate,Public,Far West,0.6652,,7056.0,18936.0,,7631.0,9824.0,,0.06,,0.5057,California State University Maritime Academy,"Vallejo, CA - 200 Maritime Academy Dr",94590-8181,6.0,Vallejo,CA,46700.0,488.0,-122.231551,38.069061,2019-01-01
1310300,,Graduate,Graduate,Private Non-Profit,Far West,,,,,,27705.0,11506.0,,0.007,,,California Western School of Law,"San Diego, CA - 225 Cedar St",92101-3046,6.0,San Diego,CA,41740.0,-2.0,-117.162416,32.722192,2019-01-01
697300,,Associate,Associate,Public,Far West,,,1360.0,7744.0,,1456.0,10453.0,,0.245,,0.0094,Canada College,"Redwood City, CA - 4200 Farm Hill Blvd.",94061-1099,6.0,Redwood City,CA,41860.0,488.0,-122.265398,37.44877,2019-01-01
890300,,Associate,Associate,Public,Far West,,,1156.0,7612.0,,1045.0,10205.0,,0.116,,0.0177,College of the Canyons,"Santa Clarita, CA - 26455 Rockwell Canyon Rd",91355-1899,6.0,Santa Clarita,CA,31080.0,348.0,-118.568698,34.403993,2019-01-01
2125000,,Certificate,Certificate,Private For-Profit,Far West,,,,,17725.0,11640.0,,,0.017,,0.5922,Career Academy of Beauty,"Garden Grove, CA - 12471 Valley View",92845,6.0,Garden Grove,CA,31080.0,348.0,-118.031697,33.781018,2019-01-01
673100,,Associate,Associate,Private Non-Profit,Far West,0.913,,,,35772.0,9351.0,6361.0,,0.029,,0.7308,Casa Loma College-Van Nuys,"Van Nuys, CA - 6725 Kester Ave",91405,6.0,Van Nuys,CA,31080.0,348.0,-118.457781,34.192829,2019-01-01
2332809,,Certificate,Certificate,Private Non-Profit,Far West,,,,,13182.0,10064.0,,,0.147,,0.3198,CET-San Diego,"San Diego, CA - 4153 Market Street",92102,6.0,San Diego,CA,41740.0,-2.0,-117.105328,32.711302,2019-01-01
2332800,,Certificate,Certificate,Private Non-Profit,Far West,,,,,15375.0,10802.0,,,0.147,,0.4202,CET-San Jose,"San Jose, CA - 701 Vine St",95110,6.0,San Jose,CA,41940.0,488.0,-121.88698,37.322723,2019-01-01
2332810,,Certificate,Certificate,Private Non-Profit,Far West,,,,,13182.0,11140.0,,,0.147,,0.149,CET-El Centro,"El Centro, CA - 294 S 3rd St",92243,6.0,El Centro,CA,20940.0,-2.0,-115.549079,32.790908,2019-01-01
2332814,,Certificate,Certificate,Private Non-Profit,Far West,,,,,13182.0,11509.0,,,0.147,,0.4878,CET-Colton,"Colton, CA - 1099 N. Pepper Ave",92324,6.0,Colton,CA,40140.0,348.0,-117.353488,34.077381,2019-01-01
2332819,,Certificate,Certificate,Private Non-Profit,Far West,,,,,11486.0,10398.0,,,0.147,,0.1594,CET-Watsonville,"Watsonville, CA - 10 Blanca Lane",95076,6.0,Watsonville,CA,42100.0,488.0,-121.767991,36.931833,2019-01-01
2332813,,Certificate,Certificate,Private Non-Profit,Far West,,,,,12954.0,9272.0,,,0.147,,0.133,CET-Salinas,"Salinas, CA - 24 East Alvin Drive",93906,6.0,Salinas,CA,41500.0,-2.0,-121.65236,36.707333,2019-01-01
116100,,Certificate,Associate,Public,Far West,,,1346.0,8710.0,,728.0,10471.0,,0.112,,0.0281,Cerritos College,"Norwalk, CA - 11110 Alondra Blvd",90650-6298,6.0,Norwalk,CA,31080.0,348.0,-118.097337,33.886874,2019-01-01
1011100,,Associate,Associate,Public,Far West,,,1290.0,7254.0,,629.0,13354.0,,0.058,,0.0,Cerro Coso Community College,"Ridgecrest, CA - 3000 College Heights Blvd",93555-9571,6.0,Ridgecrest,CA,12540.0,-2.0,-117.66767,35.567525,2019-01-01
116200,,Associate,Associate,Public,Far West,,,1142.0,7742.0,,1189.0,9891.0,,0.145,,0.0092,Chabot College,"Hayward, CA - 25555 Hesperian Blvd",94545,6.0,Hayward,CA,41860.0,488.0,-122.105636,37.642458,2019-01-01
116300,,Associate,Associate,Public,Far West,,,1172.0,7604.0,,833.0,9515.0,,0.101,,0.0,Chaffey College,"Rancho Cucamonga, CA - 5885 Haven Ave",91737-3002,6.0,Rancho Cucamonga,CA,40140.0,348.0,-117.573932,34.147663,2019-01-01
116400,,Bachelor,Graduate,Private Non-Profit,Far West,0.5356,,52724.0,52724.0,,30672.0,11826.0,,0.018,1288.0,0.4943,Chapman University,"Orange, CA - One University Dr.",92866,6.0,Orange,CA,31080.0,348.0,-117.852518,33.79302,2019-01-01
1036500,,Associate,Graduate,Private Non-Profit,Far West,0.3727,,13972.0,13972.0,,32640.0,8771.0,,0.014,982.0,0.6087,Charles R Drew University of Medicine and Science,"Los Angeles, CA - 1731 E 120th St",90059,6.0,Los Angeles,CA,31080.0,348.0,-118.242791,33.925658,2019-01-01
2070500,,Bachelor,Graduate,Private Non-Profit,Far West,0.6178,,35400.0,35400.0,,15656.0,7215.0,,0.034,1142.0,0.6033,Concordia University-Irvine,"Irvine, CA - 1530 Concordia West",92612-3203,6.0,Irvine,CA,31080.0,348.0,-117.812305,33.653665,2019-01-01
1203100,,Bachelor,Graduate,Private Non-Profit,Far West,0.6013,,31404.0,31404.0,,19997.0,6748.0,,0.099,1055.0,0.5578,San Diego Christian College,"Santee, CA - 200 Riverview Parkway",92071,6.0,Santee,CA,41740.0,-2.0,-116.978112,32.842404,2019-01-01
116500,,Graduate,Graduate,Private Non-Profit,Far West,,,,,,8133.0,6872.0,,0.0,,,Church Divinity School of the Pacific,"Berkeley, CA - 2451 Ridge Road",94709-1211,6.0,Berkeley,CA,41860.0,488.0,-122.261122,37.876184,2019-01-01
116600,,Associate,Associate,Public,Far West,,,1190.0,7646.0,,1178.0,9691.0,,0.1,,0.017,Citrus College,"Glendora, CA - 1000 W Foothill Blvd",91741-1899,6.0,Glendora,CA,31080.0,348.0,-117.885266,34.135487,2019-01-01
2178700,,Certificate,Certificate,Private For-Profit,Far West,,,,,15050.0,4547.0,,,,,0.3933,Citrus Heights Beauty College,"Citrus Heights, CA - 7518 Baird Way",95610-1410,6.0,Citrus Heights,CA,40900.0,472.0,-121.289529,38.712951,2019-01-01
450200,,Certificate,Associate,Public,Far West,,,1696.0,10372.0,,1475.0,9737.0,,0.169,,0.0065,City College of San Francisco,"San Francisco, CA - 50 Frida Kahlo Drive",94112-1898,6.0,San Francisco,CA,41860.0,488.0,-122.451155,37.725953,2019-01-01
116900,,Graduate,Graduate,Private Non-Profit,Far West,,,,,,36927.0,13883.0,,0.03,,,Claremont Graduate University,"Claremont, CA - 150 E Tenth St",91711-6160,6.0,Claremont,CA,31080.0,348.0,-117.713703,34.103585,2019-01-01
117000,,Bachelor,Graduate,Private Non-Profit,Far West,0.0931,,54405.0,54405.0,,35861.0,14628.0,,0.02,1446.0,0.2212,Claremont McKenna College,"Claremont, CA - 500 E 9th St",91711-6400,6.0,Claremont,CA,31080.0,348.0,-117.711188,34.102154,2019-01-01
2497300,,Certificate,Certificate,Private For-Profit,Far West,,,,,12559.0,9208.0,,,0.131,,0.7045,Milan Institute-Visalia,"Visalia, CA - 6500 S. Mooney Blvd.",93277,6.0,Visalia,CA,47300.0,-2.0,-119.312151,36.27164,2019-01-01
2309500,,Certificate,Certificate,Public,Far West,,,,,12000.0,2495.0,,,,,0.0,Clovis Adult Education,"Clovis, CA - 1452 David E Cook Way",93611,6.0,Clovis,CA,23420.0,260.0,-119.690369,36.834459,2019-01-01
2063500,,Associate,Associate,Public,Far West,,,1150.0,6526.0,,998.0,10579.0,,0.216,,0.028,Coastline Community College,"Fountain Valley, CA - 11460 Warner Ave.",92708-2597,6.0,Fountain Valley,CA,31080.0,348.0,-117.929143,33.715634,2019-01-01
117700,,Bachelor,Bachelor,Private For-Profit,Far West,0.5787,,20056.0,20056.0,,22207.0,7404.0,,0.076,,0.6733,Cogswell College,"San Jose, CA - 191 Baypointe Parkway",95134,6.0,San Jose,CA,41940.0,488.0,-121.94087,37.414049,2019-01-01
3577300,,Certificate,Certificate,Private For-Profit,Far West,,,,,20000.0,11307.0,,,0.05,,0.6174,Coba Academy,"Anaheim, CA - 663 N. Euclid Street",92801,6.0,Anaheim,CA,31080.0,348.0,-117.943108,33.841141,2019-01-01
2482700,,Graduate,Graduate,Private Non-Profit,Far West,,,,,,47040.0,10741.0,,0.003,,,Western University of Health Sciences,"Pomona, CA - 309 E 2nd St",91766-1854,6.0,Pomona,CA,31080.0,348.0,-117.747732,34.058092,2019-01-01
770700,,Associate,Associate,Public,Far West,,,1166.0,7358.0,,654.0,8902.0,,,,0.0,Columbia College,"Sonora, CA - 11600 Columbia College Dr",95370,6.0,Sonora,CA,43760.0,-2.0,-120.388385,38.030367,2019-01-01
2110200,,Bachelor,Bachelor,Private Non-Profit,Far West,,,24495.0,24495.0,,20553.0,5833.0,,0.132,,0.6858,Columbia College Hollywood,"Tarzana, CA - 18618 Oxnard St",91356-1411,6.0,Tarzana,CA,31080.0,348.0,-118.538793,34.17972,2019-01-01
119701,,Associate,Associate,Public,Far West,,,1142.0,6326.0,,372.0,8965.0,,0.04,,0.0,,"nan, nan - nan",,,,,,,,,2019-01-01
119000,,Associate,Associate,Public,Far West,,,1312.0,8564.0,,757.0,9078.0,,0.146,,0.0196,Contra Costa College,"San Pablo, CA - 2600 Mission Bell Dr",94806-3195,6.0,San Pablo,CA,41860.0,488.0,-122.337377,37.969381,2019-01-01
753600,,Associate,Associate,Public,Far West,,,1104.0,8712.0,,630.0,8376.0,,0.186,,0.0312,Cosumnes River College,"Sacramento, CA - 8401 Center Parkway",95823-5799,6.0,Sacramento,CA,40900.0,472.0,-121.423108,38.45295,2019-01-01
927200,,Associate,Associate,Public,Far West,,,1144.0,8104.0,,616.0,9425.0,,0.285,,0.0,Crafton Hills College,"Yucaipa, CA - 11711 Sand Canyon Road",92339-1799,6.0,Yucaipa,CA,40140.0,348.0,-117.101173,34.039178,2019-01-01
119200,,Associate,Associate,Public,Far West,,,1338.0,8702.0,,1047.0,8946.0,,0.065,,0.0407,Cuesta College,"San Luis Obispo, CA - Highway 1",93403-8106,6.0,San Luis Obispo,CA,42020.0,-2.0,-120.742235,35.331276,2019-01-01
2111300,,Associate,Associate,Public,Far West,,,1386.0,7196.0,,484.0,7339.0,,0.127,,0.0056,Cuyamaca College,"El Cajon, CA - 900 Rancho San Diego Pky",92019,6.0,El Cajon,CA,41740.0,-2.0,-116.943507,32.744954,2019-01-01
119300,,Associate,Associate,Public,Far West,,,1142.0,6158.0,,919.0,11603.0,,0.112,,0.0172,Cypress College,"Cypress, CA - 9200 Valley View",90630-5897,6.0,Cypress,CA,31080.0,348.0,-118.025143,33.82833,2019-01-01
448000,,Associate,Associate,Public,Far West,,,1561.0,7501.0,,1900.0,9179.0,,0.164,,0.0311,De Anza College,"Cupertino, CA - 21250 Stevens Creek Blvd.",95014,6.0,Cupertino,CA,41940.0,488.0,-122.045558,37.320788,2019-01-01
3964400,,Certificate,Certificate,Private For-Profit,Far West,,,,,16000.0,4259.0,,,0.243,,0.5336,International School of Beauty Inc,"Palm Desert, CA - 72261 Hwy 111 Ste 121-B",92260-2740,6.0,Palm Desert,CA,40140.0,348.0,-116.403928,33.729555,2019-01-01
3025600,,Certificate,Graduate,Private Non-Profit,Far West,,,13350.0,13350.0,,12215.0,2228.0,,0.057,,0.15,Dell'Arte International School of Physical Theatre,"Blue Lake, CA - 131 H Street",95525-0816,6.0,Blue Lake,CA,21700.0,-2.0,-123.988808,40.880924,2019-01-01
118200,,Associate,Associate,Public,Far West,,,1335.0,8615.0,,722.0,9826.0,,0.204,,0.0,College of the Desert,"Palm Desert, CA - 43-500 Monterey Ave",92260,6.0,Palm Desert,CA,40140.0,348.0,-116.388271,33.732108,2019-01-01
2298000,,Bachelor,Bachelor,Private For-Profit,Far West,0.5882,,23860.0,23860.0,,22770.0,5278.0,,0.02,,0.6111,Design Institute of San Diego,"San Diego, CA - 8555 Commerce Ave",92121,6.0,San Diego,CA,41740.0,-2.0,-117.167374,32.880926,2019-01-01
119100,,Associate,Associate,Public,Far West,,,1312.0,8564.0,,1939.0,9234.0,,0.083,,0.0113,Diablo Valley College,"Pleasant Hill, CA - 321 Golf Club Rd",94523,6.0,Pleasant Hill,CA,41860.0,488.0,-122.073142,37.968516,2019-01-01
119600,,Bachelor,Graduate,Private Non-Profit,Far West,0.8717,,45850.0,45850.0,,24774.0,8662.0,,0.04,1126.0,0.6452,Dominican University of California,"San Rafael, CA - 50 Acacia Ave",94901-2298,6.0,San Rafael,CA,41860.0,488.0,-122.512051,37.981279,2019-01-01
129600,,Graduate,Graduate,Private Non-Profit,Far West,,,,,,12238.0,3117.0,,0.047,,,Dominican School of Philosophy & Theology,"Berkeley, CA - 2301 Vine Street",94708-1816,6.0,Berkeley,CA,41860.0,488.0,-122.264612,37.881099,2019-01-01
2226000,,Certificate,Associate,Public,Far West,,,1220.0,7746.0,,782.0,9499.0,,0.11,,0.0064,East Los Angeles College,"Monterey Park, CA - 1301 Avenida Cesar Chavez",91754-6099,6.0,Monterey Park,CA,31080.0,348.0,-118.148785,34.040531,2019-01-01
119700,,Associate,Associate,Public,Far West,,,1144.0,6520.0,,1106.0,10926.0,,0.04,,0.0,El Camino Community College District,"Torrance, CA - 16007 Crenshaw Blvd",90506,6.0,Torrance,CA,31080.0,348.0,-118.329913,33.885229,2019-01-01
2091200,,Certificate,Certificate,Private For-Profit,Far West,,,,,17600.0,10502.0,,,0.163,,0.6786,Elegance International,"Hollywood, CA - 6767 Sunset Blvd",90028,6.0,Hollywood,CA,31080.0,348.0,-118.338111,34.098445,2019-01-01
2609000,,Graduate,Graduate,Private For-Profit,Far West,,,,,,11063.0,,,0.015,,,Emperor's College of Traditional Oriental Medicine,"Santa Monica, CA - 1807 Wilshire Blvd, Ste #200",90403,6.0,Santa Monica,CA,31080.0,348.0,-118.485119,34.030438,2019-01-01
903200,,Certificate,Graduate,Private For-Profit,Far West,,,,,19800.0,10209.0,4586.0,,0.041,,0.5609,Empire College,"Santa Rosa, CA - 3035 Cleveland Ave",95403-2126,6.0,Santa Rosa,CA,42220.0,488.0,-122.729337,38.468052,2019-01-01
1245200,,Associate,Associate,Public,Far West,,,1358.0,7994.0,,874.0,11971.0,,0.089,,0.0065,Evergreen Valley College,"San Jose, CA - 3095 Yerba Buena Rd",95135-1598,6.0,San Jose,CA,41940.0,488.0,-121.76561,37.30167,2019-01-01
1245200,,Associate,Associate,Public,Far West,,,1358.0,7994.0,,874.0,11971.0,,0.089,,0.0065,San Jose-Evergreen Community College District,"San Jose, CA - 40 South Market Street",95113-1599,6.0,San Jose,CA,41940.0,488.0,-121.89118,37.334851,2019-01-01
1111200,,Associate,Bachelor,Private For-Profit,Far West,0.5193,,32293.0,32293.0,,31097.0,2678.0,,0.065,,0.5395,FIDM-Fashion Institute of Design & Merchandising-Los Angeles,"Los Angeles, CA - 919 S Grand Ave",90015-1421,6.0,Los Angeles,CA,31080.0,348.0,-118.25993,34.044209,2019-01-01
1111202,,Associate,Bachelor,Private For-Profit,Far West,0.4615,,32293.0,32293.0,,29710.0,2346.0,,0.065,,0.6237,FIDM-Fashion Institute of Design & Merchandising-San Francisco,"San Francisco, CA - 55 Stockton St",94108-5805,6.0,San Francisco,CA,41860.0,488.0,-122.406651,37.786353,2019-01-01
1111203,,Associate,Bachelor,Private For-Profit,Far West,0.6667,,32293.0,32293.0,,37950.0,,,0.065,,0.6197,FIDM-Fashion Institute of Design & Merchandising-Orange County,"Irvine, CA - 17590 Gillette Avenue",92614-5610,6.0,Irvine,CA,31080.0,348.0,-117.852254,33.691963,2019-01-01
859700,,Associate,Bachelor,Public,Far West,,,1461.0,8511.0,,700.0,8177.0,,0.117,,0.0946,Feather River Community College District,"Quincy, CA - 570 Golden Eagle Ave",95971-9124,6.0,Quincy,CA,-2.0,-2.0,-120.973067,39.953101,2019-01-01
725300,,Certificate,Certificate,Private For-Profit,Far West,,,,,17200.0,6623.0,,,0.098,,0.5961,Federico Beauty Institute,"Sacramento, CA - 1515 Sports Drive    Ste 100",95834,6.0,Sacramento,CA,40900.0,472.0,-121.497761,38.64883,2019-01-01
2096100,,Graduate,Graduate,Private Non-Profit,Far West,,,,,,22655.0,6801.0,,0.049,,,Fielding Graduate University,"Santa Barbara, CA - 2020 De La Vina St",93105-3538,6.0,Santa Barbara,CA,42200.0,-2.0,-119.717161,34.42941,2019-01-01
3131300,,Graduate,Graduate,Private For-Profit,Far West,,,,,,10906.0,4348.0,,0.032,,,Five Branches University,"Santa Cruz, CA - 200 7th Avenue",95062,6.0,Santa Cruz,CA,42100.0,488.0,-121.998245,36.964348,2019-01-01
720900,,Certificate,Certificate,Private For-Profit,Far West,,,,,11200.0,4186.0,,,0.0,,0.0957,Redondo Beach Beauty College,"Redondo Beach, CA - 2205 West Artesia Boulevard",90278-3111,6.0,Redondo Beach,CA,31080.0,348.0,-118.372137,33.873098,2019-01-01
119900,,Certificate,Bachelor,Public,Far West,,,1563.0,7503.0,,2286.0,9294.0,,0.149,,0.0222,Foothill College,"Los Altos Hills, CA - 12345 El Monte Rd",94022,6.0,Los Altos Hills,CA,41940.0,488.0,-122.127964,37.361655,2019-01-01
1179200,,Graduate,Graduate,Private Non-Profit,Far West,,,,,,11001.0,7353.0,,0.047,,,Franciscan School of Theology,"Oceanside, CA - 4050 Mission Avenue",92057,6.0,Oceanside,CA,41740.0,-2.0,-117.320066,33.232416,2019-01-01
2230900,,Certificate,Certificate,Private For-Profit,Far West,,,,,14500.0,9206.0,,,,,0.0,Fredrick and Charles Beauty College,"Eureka, CA - 831 F St",95501,6.0,Eureka,CA,21700.0,-2.0,-124.164986,40.798885,2019-01-01
130700,,Associate,Associate,Public,Far West,,,1304.0,7496.0,,447.0,9430.0,,0.162,,0.0106,Fresno City College,"Fresno, CA - 1101 E. University Ave",93741,6.0,Fresno,CA,23420.0,260.0,-119.796096,36.768164,2019-01-01
125300,,Bachelor,Graduate,Private Non-Profit,Far West,0.8511,,32458.0,32458.0,,16592.0,7166.0,,0.053,1053.0,0.718,Fresno Pacific University,"Fresno, CA - 1717 S Chestnut Ave",93702-4709,6.0,Fresno,CA,23420.0,260.0,-119.735199,36.726831,2019-01-01
120000,,Graduate,Graduate,Private Non-Profit,Far West,,,,,,11578.0,7722.0,,0.024,,,Fuller Theological Seminary,"Pasadena, CA - 135 N Oakland Ave",91182,6.0,Pasadena,CA,31080.0,348.0,-118.140261,34.14778,2019-01-01
120100,,Associate,Associate,Public,Far West,,,1138.0,6010.0,,915.0,11454.0,,0.14,,0.0439,Fullerton College,"Fullerton, CA - 321 E Chapman Avenue",92832-2095,6.0,Fullerton,CA,31080.0,348.0,-117.918255,33.875514,2019-01-01
120200,,Certificate,Associate,Public,Far West,,,1166.0,6782.0,,774.0,10119.0,,0.115,,0.0043,Gavilan College,"Gilroy, CA - 5055 Santa Teresa Blvd",95020,6.0,Gilroy,CA,41940.0,488.0,-121.569842,36.972627,2019-01-01
2231900,,Certificate,Certificate,Private Non-Profit,Far West,,,,,21000.0,26013.0,,,0.1,,0.1026,Gemological Institute of America-Carlsbad,"Carlsbad, CA - 5345 Armada Dr",92008,6.0,Carlsbad,CA,41740.0,-2.0,-117.318765,33.131313,2019-01-01
120300,,Associate,Associate,Public,Far West,,,1175.0,6719.0,,843.0,9555.0,,0.037,,0.0199,Glendale Community College,"Glendale, CA - 1500 N Verdugo Rd",91208-2894,6.0,Glendale,CA,31080.0,348.0,-118.227666,34.16745,2019-01-01
2338500,,Certificate,Associate,Private For-Profit,Far West,,,,,72355.0,12574.0,3949.0,,0.02,,0.7803,Glendale Career College,"Glendale, CA - 240 North Brand Boulevard Lower Level",91203,6.0,Glendale,CA,31080.0,348.0,-118.254719,34.149771,2019-01-01
120500,,Bachelor,Graduate,Private Non-Profit,Far West,,,,,,22657.0,10287.0,,0.042,,0.3473,Golden Gate University-San Francisco,"San Francisco, CA - 536 Mission Street",94105-2968,6.0,San Francisco,CA,41860.0,488.0,-122.398969,37.789374,2019-01-01
120600,,Associate,Associate,Public,Far West,,,1178.0,7682.0,,1361.0,10852.0,,0.093,,0.0186,Golden West College,"Huntington Beach, CA - 15744 Goldenwest St.",92647-2710,6.0,Huntington Beach,CA,31080.0,348.0,-118.002568,33.732531,2019-01-01
120700,,Graduate,Graduate,Private Non-Profit,Far West,,,,,,7423.0,8198.0,,0.05,,,Graduate Theological Union,"Berkeley, CA - 2400 Ridge Rd",94709,6.0,Berkeley,CA,41860.0,488.0,-122.261847,37.87554,2019-01-01
120800,,Associate,Associate,Public,Far West,,,1386.0,7196.0,,365.0,7763.0,,0.144,,0.0189,Grossmont College,"El Cajon, CA - 8800 Grossmont College Dr",92020-1799,6.0,El Cajon,CA,41740.0,-2.0,-117.006277,32.815246,2019-01-01
2211000,,Certificate,Certificate,Private For-Profit,Far West,,,,,20000.0,7306.0,,,0.189,,0.6311,Salon Success Academy-Riverside,"Riverside, CA - 6780 Indiana Ave. Ste #200",92506,6.0,Riverside,CA,40140.0,348.0,-117.391024,33.943149,2019-01-01
120900,,Associate,Associate,Public,Far West,,,1420.0,8870.0,,400.0,7785.0,,0.188,,0.0,Hartnell College,"Salinas, CA - 411 Central Avenue",93901,6.0,Salinas,CA,41500.0,-2.0,-121.666054,36.675091,2019-01-01
117100,,Bachelor,Bachelor,Private Non-Profit,Far West,0.1448,,56620.0,56620.0,,31809.0,13671.0,,0.0,1531.0,0.3856,Harvey Mudd College,"Claremont, CA - 301 Platt Blvd.",91711,6.0,Claremont,CA,31080.0,348.0,-117.709837,34.106515,2019-01-01
2285100,,Certificate,Certificate,Private For-Profit,Far West,,,,,12495.0,5036.0,,,,,0.0,Hilltop Beauty School,"Daly City, CA - 6317 Mission St",94014,6.0,Daly City,CA,41860.0,488.0,-122.461467,37.705502,2019-01-01
118300,,Bachelor,Graduate,Private Non-Profit,Far West,0.7004,,39316.0,39316.0,,16036.0,8046.0,,0.073,849.0,0.8071,Holy Names University,"Oakland, CA - 3500 Mountain Blvd",94619-1699,6.0,Oakland,CA,41860.0,488.0,-122.187804,37.802276,2019-01-01
3126800,,Graduate,Graduate,Private For-Profit,Far West,,,,,,28195.0,7441.0,,0.034,,,Pacifica Graduate Institute,"Carpinteria, CA - 249 Lambert Rd",93013,6.0,Carpinteria,CA,42200.0,-2.0,-119.580414,34.420881,2019-01-01
114900,,Bachelor,Graduate,Public,Far West,0.7679,,7675.0,19555.0,,4192.0,9602.0,,0.074,1074.0,0.5126,Humboldt State University,"Arcata, CA - 1 Harpst Street",95521-8299,6.0,Arcata,CA,21700.0,-2.0,-124.078293,40.877481,2019-01-01
121200,,Bachelor,Graduate,Private Non-Profit,Far West,,,14292.0,14292.0,,15807.0,6775.0,,0.084,,0.6614,Humphreys University-Stockton and Modesto Campuses,"Stockton, CA - 6650 Inglewood Ave",95207-3896,6.0,Stockton,CA,44700.0,488.0,-121.316918,38.011489,2019-01-01
121400,,Associate,Associate,Public,Far West,,,1125.0,6093.0,,567.0,8664.0,,,,0.0,Imperial Valley College,"Imperial, CA - 380 E. Aten Road",92251-0158,6.0,Imperial,CA,20940.0,-2.0,-115.503563,32.827209,2019-01-01
2128300,,Certificate,Associate,Private For-Profit,Far West,,,,,14348.0,7759.0,5368.0,,0.191,,0.4403,Institute for Business and Technology,"Santa Clara, CA - 2400 Walsh Avenue",95051-1303,6.0,Santa Clara,CA,41940.0,488.0,-121.969541,37.368642,2019-01-01
2520300,,Associate,Bachelor,Private For-Profit,Far West,,,18250.0,18250.0,,21025.0,7646.0,,0.055,,0.524,Interior Designers Institute,"Newport Beach, CA - 1061 Camelback Street",92660,6.0,Newport Beach,CA,31080.0,348.0,-117.865722,33.641393,2019-01-01
2255400,,Certificate,Certificate,Private For-Profit,Far West,,,,,18900.0,11481.0,,,0.051,,0.5774,Toni & Guy Hairdressing Academy-Santa Monica,"Santa Monica, CA - 1358 5th St",90401,6.0,Santa Monica,CA,31080.0,348.0,-118.494755,34.017276,2019-01-01
2539500,,Certificate,Associate,Public,Far West,,,1142.0,8054.0,,1668.0,10222.0,,0.083,,0.0102,Irvine Valley College,"Irvine, CA - 5500 Irvine Center Drive",92618-0301,6.0,Irvine,CA,31080.0,348.0,-117.777539,33.675381,2019-01-01
1202600,,Certificate,Certificate,Private For-Profit,Far West,,,,,13989.0,13402.0,,,0.009,,0.5613,Bellus Academy-El Cajon,"El Cajon, CA - 1073 E Main St",92021,6.0,El Cajon,CA,41740.0,-2.0,-116.94627,32.794072,2019-01-01
448400,,Bachelor,Graduate,Private Non-Profit,Far West,,,8500.0,8500.0,,21881.0,5923.0,,0.036,,0.4583,John F. Kennedy University,"Pleasant Hill, CA - 100 Ellinwood Way",94523-4817,6.0,Pleasant Hill,CA,41860.0,488.0,-122.054761,37.956616,2019-01-01
274100,,Bachelor,Graduate,Private Non-Profit,Far West,0.96,,31946.0,31946.0,,15293.0,7904.0,,0.08,,0.3443,American Jewish University,"Los Angeles, CA - 15600 Mulholland Dr",90077-1519,6.0,Los Angeles,CA,31080.0,348.0,-118.471706,34.128153,2019-01-01
130800,,Certificate,Associate,Public,Far West,,,1304.0,7568.0,,506.0,9096.0,,0.183,,0.0097,Reedley College,"Reedley, CA - 995 N Reed Ave",93654,6.0,Reedley,CA,23420.0,260.0,-119.458555,36.605428,2019-01-01
2270600,,Bachelor,Graduate,Private Non-Profit,Far West,0.9568,,15654.0,15654.0,,10917.0,6300.0,,0.071,1002.0,0.6904,Life Pacific University,"San Dimas, CA - 1100 W. Covina Blvd.",91773-3298,6.0,San Dimas,CA,31080.0,348.0,-117.829388,34.098705,2019-01-01
121600,,Bachelor,Graduate,Private Non-Profit,Far West,0.5089,,43050.0,43050.0,,20508.0,9264.0,,0.04,1120.0,0.6204,University of La Verne,"La Verne, CA - 1950 Third St",91750-4401,6.0,La Verne,CA,31080.0,348.0,-117.773262,34.100855,2019-01-01
2330500,,Bachelor,Graduate,Private Non-Profit,Far West,0.8093,,30700.0,30700.0,,20583.0,8957.0,,0.039,,0.577,Laguna College of Art and Design,"Laguna Beach, CA - 2222 Laguna Canyon Rd",92651,6.0,Laguna Beach,CA,31080.0,348.0,-117.772564,33.561448,2019-01-01
1290700,,Associate,Associate,Public,Far West,,,1224.0,7932.0,,2376.0,6460.0,,0.1,,0.0,Lake Tahoe Community College,"South Lake Tahoe, CA - One College Drive",96150,6.0,South Lake Tahoe,CA,40900.0,472.0,-119.972574,38.926797,2019-01-01
1301000,,Certificate,Certificate,Private For-Profit,Far West,,,,,16475.0,9744.0,,,0.084,,0.645,Lancaster Beauty School,"Lancaster, CA - 44646 N 10th St W",93534,6.0,Lancaster,CA,31080.0,348.0,-118.147547,34.694914,2019-01-01
126600,,Associate,Associate,Public,Far West,,,1254.0,7806.0,,1073.0,9091.0,,0.279,,0.0154,Laney College,"Oakland, CA - 900 Fallon Sreet",94607,6.0,Oakland,CA,41860.0,488.0,-122.26283,37.797257,2019-01-01
121700,,Associate,Associate,Public,Far West,,,1127.0,7319.0,,1048.0,8102.0,,0.216,,0.0173,Lassen Community College,"Susanville, CA - 478-200 Hwy 139",96130,6.0,Susanville,CA,45000.0,-2.0,-120.633271,40.432053,2019-01-01
2228500,,Graduate,Graduate,Private Non-Profit,Far West,,,,,,32235.0,7588.0,,0.019,,,Life Chiropractic College West,"Hayward, CA - 25001 Industrial Blvd",94545-2800,6.0,Hayward,CA,41860.0,488.0,-122.117619,37.638099,2019-01-01
697500,,Bachelor,Graduate,Private Non-Profit,Far West,,,11110.0,11110.0,,6531.0,5157.0,,0.029,,0.2832,Lincoln University,"Oakland, CA - 401 15th Street",94612-2801,6.0,Oakland,CA,41860.0,488.0,-122.269745,37.804788,2019-01-01
3332300,,Bachelor,Graduate,Private Non-Profit,Far West,,,17540.0,17540.0,,9339.0,4120.0,,0.064,,0.4231,Southern California Seminary,"El Cajon, CA - 2075 E. Madison Avenue",92019-1108,6.0,El Cajon,CA,41740.0,-2.0,-116.905461,32.799614,2019-01-01
121500,,Bachelor,Graduate,Private Non-Profit,Far West,0.4709,,32778.0,32778.0,,29673.0,8000.0,,0.05,1022.0,0.5869,La Sierra University,"Riverside, CA - 4500 Riverwalk Parkway",92505-8247,6.0,Riverside,CA,40140.0,348.0,-117.500054,33.910704,2019-01-01
121800,,Bachelor,Graduate,Private Non-Profit,Far West,,,,,,35083.0,8360.0,,0.009,,0.623,Loma Linda University,"Loma Linda, CA - 11139 Anderson Street",92350,6.0,Loma Linda,CA,40140.0,348.0,-117.260605,34.051241,2019-01-01
121900,,Associate,Associate,Public,Far West,,,1174.0,7750.0,,736.0,6944.0,,0.175,,0.021,Long Beach City College,"Long Beach, CA - 4901 E. Carson St.",90808-1706,6.0,Long Beach,CA,31080.0,348.0,-118.135633,33.833593,2019-01-01
122900,,Certificate,Graduate,Private Non-Profit,Far West,,,7000.0,7000.0,,18865.0,7136.0,,0.039,,0.0778,Southern California University of Health Sciences,"Whittier, CA - 16200 East Amber Valley Drive",90604,6.0,Whittier,CA,31080.0,348.0,-117.983401,33.922966,2019-01-01
122400,,Associate,Associate,Public,Far West,,,1220.0,7746.0,,1028.0,9308.0,,0.076,,0.0082,Los Angeles Harbor College,"Wilmington, CA - 1111 Figueroa Place",90744-2397,6.0,Wilmington,CA,31080.0,348.0,-118.28186,33.784201,2019-01-01
122600,,Associate,Associate,Public,Far West,,,1220.0,7746.0,,866.0,9303.0,,0.132,,0.0354,Los Angeles Pierce College,"Woodland Hills, CA - 6201 Winnetka Ave",91371-0002,6.0,Woodland Hills,CA,31080.0,348.0,-118.575071,34.183949,2019-01-01
704700,,Associate,Associate,Public,Far West,,,1220.0,7746.0,,481.0,9113.0,,0.17,,0.0333,Los Angeles Southwest College,"Los Angeles, CA - 1600 W. Imperial Hwy.",90047-4899,6.0,Los Angeles,CA,31080.0,348.0,-118.304674,33.929586,2019-01-01
122700,,Certificate,Associate,Public,Far West,,,1220.0,7746.0,,600.0,9562.0,,0.219,,0.0261,Los Angeles Trade Technical College,"Los Angeles, CA - 400 W Washington Blvd",90015-4181,6.0,Los Angeles,CA,31080.0,348.0,-118.269447,34.031907,2019-01-01
122800,,Associate,Associate,Public,Far West,,,1220.0,7746.0,,736.0,9402.0,,0.102,,0.0139,Los Angeles Valley College,"Valley Glen, CA - 5800 Fulton Avenue",91401-4096,6.0,Valley Glen,CA,31080.0,348.0,-118.421734,34.175165,2019-01-01
122000,,Bachelor,Graduate,Private Non-Profit,Far West,0.7688,,25390.0,25390.0,,13486.0,8258.0,,0.016,1143.0,0.5223,The Master's University and Seminary,"Santa Clarita, CA - 21726 Placerita Canyon Road",91321-1200,6.0,Santa Clarita,CA,31080.0,348.0,-118.518193,34.381755,2019-01-01
122300,,Certificate,Associate,Public,Far West,,,1220.0,7746.0,,844.0,8993.0,,0.141,,0.0312,Los Angeles City College,"Los Angeles, CA - 855 N Vermont Ave",90029,6.0,Los Angeles,CA,31080.0,348.0,-118.292169,34.087301,2019-01-01
616500,,Associate,Associate,Public,Far West,,,,,,3906.0,11832.0,,0.023,,0.5962,Los Angeles County College of Nursing and Allied Health,"Los Angeles, CA - 1237 N. Mission Rd.",90033-1084,6.0,Los Angeles,CA,31080.0,348.0,-118.211852,34.062647,2019-01-01
1255000,,Associate,Associate,Public,Far West,,,1220.0,7746.0,,600.0,8965.0,,0.123,,0.0141,Los Angeles Mission College,"Sylmar, CA - 13356 Eldridge Avenue",91342-3200,6.0,Sylmar,CA,31080.0,348.0,-118.4195,34.314668,2019-01-01
1034000,,Associate,Associate,Public,Far West,,,1312.0,8564.0,,673.0,8850.0,,0.123,,0.0163,Los Medanos College,"Pittsburg, CA - 2700 East Leland Road",94565,6.0,Pittsburg,CA,41860.0,488.0,-121.860967,38.006474,2019-01-01
1164900,,Bachelor,Graduate,Private Non-Profit,Far West,0.4713,,48522.0,48522.0,,33429.0,11733.0,,0.018,1321.0,0.3855,Loyola Marymount University,"Los Angeles, CA - One Lmu Drive",90045-2659,6.0,Los Angeles,CA,31080.0,348.0,-118.415744,33.97085,2019-01-01
1186600,,Certificate,Certificate,Private For-Profit,Far West,,,,,17450.0,11292.0,,,0.058,,0.536,Lu Ross Academy,"Ventura, CA - 470 East Thompson Blvd",93001-2729,6.0,Ventura,CA,37100.0,348.0,-119.293952,34.278034,2019-01-01
712800,,Certificate,Certificate,Private For-Profit,Far West,,,,,16075.0,8261.0,,,,,0.3577,,"nan, nan - nan",,,,,,,,,2019-01-01
714200,,Certificate,Certificate,Private For-Profit,Far West,,,,,16075.0,7133.0,,,0.078,,0.5093,Lyle's College of  Beauty,"Fresno, CA - 6735 N First Ave Ste 112",93710,6.0,Fresno,CA,23420.0,260.0,-119.774167,36.836265,2019-01-01
1324000,,Certificate,Certificate,Private For-Profit,Far West,1.0,,,,19713.0,10363.0,,,0.076,,0.4528,Lytles Redwood Empire Beauty College Inc,"Santa Rosa, CA - 186 Wikiup Dr",95403,6.0,Santa Rosa,CA,42220.0,488.0,-122.75777,38.508385,2019-01-01
2546400,,Certificate,Certificate,Private For-Profit,Far West,,,,,9250.0,4784.0,,,,,1.0,MTI Business College Inc,"Stockton, CA - 6006 N. El Dorado Street",95207-4349,6.0,Stockton,CA,44700.0,488.0,-121.308445,38.007885,2019-01-01
1291200,,Certificate,Associate,Private For-Profit,Far West,0.7857,,,,15300.0,11220.0,3391.0,,0.115,,0.7345,MTI College,"Sacramento, CA - 5221 Madison Avenue",95841-9817,6.0,Sacramento,CA,40900.0,472.0,-121.342568,38.661377,2019-01-01
117800,,Associate,Associate,Public,Far West,,,1492.0,9712.0,,1612.0,10702.0,,0.212,,0.0115,College of Marin,"Kentfield, CA - 835 College Ave",94904-2590,6.0,Kentfield,CA,41860.0,488.0,-122.549149,37.954897,2019-01-01
1047400,,Associate,Graduate,Private Non-Profit,Far West,,,36134.0,36134.0,,20966.0,7738.0,,0.068,,0.5393,Marymount California University,"Rancho Palos Verdes, CA - 30800 Palos Verdes Drive East",90275-6299,6.0,Rancho Palos Verdes,CA,31080.0,348.0,-118.333371,33.734887,2019-01-01
1167200,,Associate,Associate,Public,Far West,,,1423.0,7783.0,,575.0,8389.0,,0.228,,0.0292,Mendocino College,"Ukiah, CA - 1000 Hensley Creek Road",95482,6.0,Ukiah,CA,46380.0,-2.0,-123.228809,39.188989,2019-01-01
123600,,Bachelor,Bachelor,Private Non-Profit,Far West,0.4548,,42800.0,42800.0,,18298.0,11150.0,,0.069,1042.0,0.5396,Menlo College,"Atherton, CA - 1000 El Camino Real",94027-4301,6.0,Atherton,CA,41860.0,488.0,-122.190797,37.453475,2019-01-01
123700,,Associate,Associate,Public,Far West,,,1150.0,6115.0,,648.0,8588.0,,,,0.0,Merced College,"Merced, CA - 3600 M St",95348-2898,6.0,Merced,CA,32900.0,488.0,-120.476464,37.3353,2019-01-01
126700,,Certificate,Associate,Public,Far West,,,1254.0,7806.0,,1109.0,9193.0,,0.236,,0.0134,Merritt College,"Oakland, CA - 12500 Campus Dr",94619-3196,6.0,Oakland,CA,41860.0,488.0,-122.167335,37.789088,2019-01-01
123800,,Bachelor,Graduate,Private Non-Profit,Far West,0.8554,,30257.0,30257.0,,19045.0,10308.0,,0.035,1158.0,0.6833,Mills College,"Oakland, CA - 5000 MacArthur Blvd",94613,6.0,Oakland,CA,41860.0,488.0,-122.182294,37.781425,2019-01-01
123900,,Certificate,Associate,Public,Far West,,,1336.0,6768.0,,1467.0,11760.0,,0.139,,0.0245,MiraCosta College,"Oceanside, CA - One Barnard Drive",92056-3899,6.0,Oceanside,CA,41740.0,-2.0,-117.302606,33.190483,2019-01-01
2119100,,Associate,Associate,Public,Far West,,,1192.0,6280.0,,1561.0,10379.0,,0.126,,0.0065,Mission College,"Santa Clara, CA - 3000 Mission College Blvd",95054-1897,6.0,Santa Clara,CA,41940.0,488.0,-121.980783,37.391935,2019-01-01
720400,,Certificate,Certificate,Private For-Profit,Far West,,,,,16409.0,8849.0,,,0.171,,0.4211,Modern Beauty Academy,"Oxnard, CA - 699 South C St",93030,6.0,Oxnard,CA,37100.0,348.0,-119.181423,34.195384,2019-01-01
124000,,Associate,Associate,Public,Far West,,,1166.0,7358.0,,533.0,8782.0,,,,0.0,Modesto Junior College,"Modesto, CA - 435 College Ave",95350-5800,6.0,Modesto,CA,33700.0,488.0,-121.009792,37.651056,2019-01-01
2185800,,Certificate,Certificate,Private For-Profit,Far West,,,,,18342.0,6743.0,,,0.237,,0.6351,Moler Barber College,"Oakland, CA - 3815 Telegraph Ave",94609-2419,6.0,Oakland,CA,41860.0,488.0,-122.265352,37.827075,2019-01-01
369110,,Bachelor,Graduate,Private Non-Profit,Far West,,,,,,23161.0,9281.0,,0.013,,0.6923,Middlebury Institute of International Studies at Monterey,"Monterey, CA - 460 Pierce Street",93940,6.0,Monterey,CA,41500.0,-2.0,-121.897325,36.599736,2019-01-01
124200,,Associate,Associate,Public,Far West,,,1176.0,7368.0,,1009.0,8526.0,,0.225,,0.0177,Monterey Peninsula College,"Monterey, CA - 980 Fremont St",93940-4799,6.0,Monterey,CA,41500.0,-2.0,-121.884931,36.590558,2019-01-01
711500,,Associate,Associate,Public,Far West,,,1388.0,7050.0,,958.0,8401.0,,0.103,,0.013,Moorpark College,"Moorpark, CA - 7075 Campus Rd",93021-1695,6.0,Moorpark,CA,37100.0,348.0,-118.834528,34.301146,2019-01-01
124500,,Associate,Associate,Public,Far West,,,1350.0,9414.0,,975.0,10223.0,,0.139,,0.0065,Mt San Antonio College,"Walnut, CA - 1100 N Grand Ave",91789-1399,6.0,Walnut,CA,31080.0,348.0,-117.846629,34.047764,2019-01-01
124300,,Bachelor,Graduate,Private Non-Profit,Far West,0.8382,,41170.0,41170.0,,24643.0,8998.0,,0.033,1031.0,0.8866,Mount Saint Mary's University,"Los Angeles, CA - 12001 Chalon Rd",90049-1599,6.0,Los Angeles,CA,31080.0,348.0,-118.482879,34.085315,2019-01-01
124600,,Associate,Associate,Public,Far West,,,1386.0,10026.0,,511.0,9236.0,,0.111,,0.0,Mt San Jacinto Community College District,"San Jacinto, CA - 1499 N. State St.",92583-2399,6.0,San Jacinto,CA,40140.0,348.0,-116.971169,33.806748,2019-01-01
2161800,,Certificate,Bachelor,Private For-Profit,Far West,0.7564,,24030.0,24030.0,,24170.0,3240.0,,0.076,,0.3253,Musicians Institute,"Hollywood, CA - 6752 Hollywood Blvd.",90028,6.0,Hollywood,CA,31080.0,348.0,-118.337582,34.101265,2019-01-01
124700,,Associate,Associate,Public,Far West,,,1142.0,6758.0,,947.0,8826.0,,0.121,,0.0094,Napa Valley College,"Napa, CA - 2277 Napa-Vallejo Hwy",94558-6236,6.0,Napa,CA,34900.0,488.0,-122.274381,38.274081,2019-01-01
2542300,,Certificate,Certificate,Private For-Profit,Far West,,,,,15588.0,11949.0,,,0.089,,0.4587,National Holistic Institute,"Emeryville, CA - 5900 Doyle Street",94608-2008,6.0,Emeryville,CA,41860.0,488.0,-122.287672,37.841898,2019-01-01
1146000,,Bachelor,Graduate,Private Non-Profit,Far West,,,13320.0,13320.0,,14090.0,10270.0,,0.049,,0.3649,National University,"La Jolla, CA - 11255 North Torrey Pines Road",92037-1011,6.0,La Jolla,CA,41740.0,-2.0,-117.243026,32.909894,2019-01-01
131000,,Graduate,Graduate,Public,US Service,,,,,,,13679.0,,,,,Naval Postgraduate School,"Monterey, CA - 1 University Circle",93943,6.0,Monterey,CA,41500.0,-2.0,-121.874248,36.597159,2019-01-01
3043900,,Bachelor,Graduate,Private For-Profit,Far West,1.0,,27501.0,27501.0,,15557.0,7193.0,,0.08,,0.5161,Newschool of Architecture and Design,"San Diego, CA - 1249 F St",92101,6.0,San Diego,CA,41740.0,-2.0,-117.153305,32.71331,2019-01-01
713000,,Certificate,Certificate,Private For-Profit,Far West,,,,,17700.0,9935.0,,,0.056,,0.4878,Newberry School of Beauty,"Granada Hills, CA - 16860 Devonshire Blvd",91344-7401,6.0,Granada Hills,CA,31080.0,348.0,-118.499693,34.256683,2019-01-01
718700,,Certificate,Certificate,Private For-Profit,Far West,,,,,15573.0,19542.0,,,0.145,,0.5993,North Adrian's College of Beauty Inc,"Modesto, CA - 124 Floyd Ave",95350-2381,6.0,Modesto,CA,33700.0,488.0,-120.992753,37.677778,2019-01-01
1287200,,Certificate,Certificate,Private For-Profit,Far West,,,,,15493.0,10371.0,,,0.017,,0.9175,North-West College-Pomona,"Pomona, CA - 170  W Holt Ave",91768,6.0,Pomona,CA,31080.0,348.0,-117.751227,34.062043,2019-01-01
1170700,,Certificate,Associate,Private For-Profit,Far West,1.0,,,,15493.0,9116.0,3500.0,,0.014,,0.906,North-West College-West Covina,"West Covina, CA - 2121 W Garvey Ave",91790,6.0,West Covina,CA,31080.0,348.0,-117.949583,34.072071,2019-01-01
2591600,,Certificate,Certificate,Private For-Profit,Far West,,,,,33247.0,11344.0,,,0.005,,0.8764,North-West College-Van Nuys,"Van Nuys, CA - 14540 Haynes",91411,6.0,Van Nuys,CA,31080.0,348.0,-118.450184,34.189497,2019-01-01
117900,,Bachelor,Graduate,Private Non-Profit,Far West,0.9666,,35350.0,35350.0,,18765.0,9117.0,,0.058,983.0,0.6353,Notre Dame de Namur University,"Belmont, CA - 1500 Ralston Ave",94002-1908,6.0,Belmont,CA,41860.0,488.0,-122.284794,37.517111,2019-01-01
124900,,Bachelor,Bachelor,Private Non-Profit,Far West,0.373,,54686.0,54686.0,,29134.0,11293.0,,0.016,1368.0,0.4594,Occidental College,"Los Angeles, CA - 1600 Campus Rd",90041-3392,6.0,Los Angeles,CA,31080.0,348.0,-118.210908,34.127124,2019-01-01
448100,,Associate,Associate,Public,Far West,,,1164.0,6828.0,,1675.0,11687.0,,0.051,,0.0072,Ohlone College,"Fremont, CA - 43600 Mission Blvd",94539-0390,6.0,Fremont,CA,41860.0,488.0,-121.916339,37.52773,2019-01-01
125000,,Certificate,Associate,Public,Far West,,,1186.0,7978.0,,1161.0,10694.0,,0.092,,0.0203,Orange Coast College,"Costa Mesa, CA - 2701 Fairview Road",92626,6.0,Costa Mesa,CA,31080.0,348.0,-117.909086,33.66927,2019-01-01
125100,,Bachelor,Graduate,Private Non-Profit,Far West,0.9441,,46860.0,46860.0,,33696.0,7871.0,,0.045,1158.0,0.4906,Otis College of Art and Design,"Los Angeles, CA - 9045 Lincoln Blvd",90045-3505,6.0,Los Angeles,CA,31080.0,348.0,-118.416615,33.956607,2019-01-01
1284200,,Associate,Associate,Public,Far West,,,1388.0,7050.0,,240.0,8663.0,,,,0.0,Oxnard College,"Oxnard, CA - 4000 S Rose Ave",93033-6699,6.0,Oxnard,CA,37100.0,348.0,-119.157604,34.166104,2019-01-01
125200,,Bachelor,Graduate,Private Non-Profit,Far West,0.2945,,33400.0,33400.0,,12251.0,4582.0,,0.051,1022.0,0.6382,Hope International University,"Fullerton, CA - 2500 E Nutwood Ave",92831-3199,6.0,Fullerton,CA,31080.0,348.0,-117.88573,33.87616,2019-01-01
793000,,Certificate,Associate,Private For-Profit,Far West,0.9066,,,,16605.0,14747.0,4851.0,,0.141,,0.6044,Concorde Career College-San Diego,"San Diego, CA - 4393 Imperial Avenue, Suite 100",92113-1964,6.0,San Diego,CA,41740.0,-2.0,-117.102845,32.702814,2019-01-01
2138300,,Bachelor,Graduate,Private Non-Profit,Far West,,,,,,26399.0,12264.0,,0.045,,0.6446,Palo Alto University,"Palo Alto, CA - 1791 Arastradero Rd",94304-1337,6.0,Palo Alto,CA,41940.0,488.0,-122.187437,37.382216,2019-01-01
125500,,Bachelor,Graduate,Private Non-Profit,Far West,0.3095,,13688.0,13688.0,,23761.0,6038.0,,0.06,,0.8501,Pacific Oaks College,"Pasadena, CA - 45 Eureka Street",91103,6.0,Pasadena,CA,31080.0,348.0,-118.151323,34.153382,2019-01-01
125600,,Graduate,Graduate,Private Non-Profit,Far West,,,,,,8407.0,6946.0,,0.071,,,Pacific School of Religion,"Berkeley, CA - 1798 Scenic Ave",94709,6.0,Berkeley,CA,41860.0,488.0,-122.263155,37.87669,2019-01-01
3163300,,Bachelor,Graduate,Private Non-Profit,Far West,,,16065.0,16065.0,,11831.0,3500.0,,0.111,,0.0,Pacific States University,"Los Angeles, CA - 3424 Wilshire Blvd. 12th floor",90010-2263,6.0,Los Angeles,CA,31080.0,348.0,-118.298408,34.061315,2019-01-01
125800,,Bachelor,Bachelor,Private Non-Profit,Far West,0.4944,,30060.0,30060.0,,16868.0,6285.0,,0.08,1080.0,0.7145,Pacific Union College,"Angwin, CA - One Angwin Ave",94508-9707,6.0,Angwin,CA,34900.0,488.0,-122.440308,38.570585,2019-01-01
132900,,Bachelor,Graduate,Private Non-Profit,Far West,0.6348,,48164.0,48164.0,,32936.0,10587.0,,0.021,1240.0,0.5175,University of the Pacific,"Stockton, CA - 3601 Pacific Ave",95211-0197,6.0,Stockton,CA,44700.0,488.0,-121.312301,37.981424,2019-01-01
125900,,Certificate,Associate,Public,Far West,,,1288.0,9120.0,,429.0,9118.0,,,,0.0,Palo Verde College,"Blythe, CA - One College Drive",92225,6.0,Blythe,CA,40140.0,348.0,-114.651698,33.661538,2019-01-01
126000,,Certificate,Associate,Public,Far West,,,1338.0,8702.0,,1036.0,10290.0,,0.132,,0.0068,Palomar College,"San Marcos, CA - 1140 W. Mission",92069-1487,6.0,San Marcos,CA,41740.0,-2.0,-117.183978,33.149483,2019-01-01
126100,,Associate,Associate,Public,Far West,,,1166.0,7548.0,,1401.0,8865.0,,0.098,,0.0063,Pasadena City College,"Pasadena, CA - 1570 E Colorado Blvd.",91106-2003,6.0,Pasadena,CA,31080.0,348.0,-118.118196,34.144552,2019-01-01
1014900,,Bachelor,Graduate,Private Non-Profit,Far West,0.3565,,53932.0,53932.0,,31625.0,12387.0,,0.014,1330.0,0.381,Pepperdine University,"Malibu, CA - 24255 Pacific Coast Hwy",90263,6.0,Malibu,CA,31080.0,348.0,-118.707077,34.037786,2019-01-01
117200,,Bachelor,Bachelor,Private Non-Profit,Far West,0.1333,,54056.0,54056.0,,50757.0,11104.0,,0.065,,0.378,Pitzer College,"Claremont, CA - 1050 North Mills Avenue",91711-6101,6.0,Claremont,CA,31080.0,348.0,-117.706675,34.104107,2019-01-01
2304300,,Associate,Bachelor,Private For-Profit,Far West,,,17235.0,17235.0,,21641.0,3460.0,,0.07,,0.4326,Platt College-San Diego,"San Diego, CA - 6250 El Cajon Blvd",92115-3919,6.0,San Diego,CA,41740.0,-2.0,-117.063483,32.76373,2019-01-01
126200,,Bachelor,Graduate,Private Non-Profit,Far West,0.6893,,35700.0,35700.0,,21015.0,10189.0,,0.027,1240.0,0.5851,Point Loma Nazarene University,"San Diego, CA - 3900 Lomaland Dr",92106-2899,6.0,San Diego,CA,41740.0,-2.0,-117.250265,32.718391,2019-01-01
117300,,Bachelor,Bachelor,Private Non-Profit,Far West,0.0761,,52780.0,52780.0,,22245.0,13451.0,,0.0,1468.0,0.1226,Pomona College,"Claremont, CA - 550 N College Ave",91711-6319,6.0,Claremont,CA,31080.0,348.0,-117.714556,34.099027,2019-01-01
126800,,Associate,Associate,Public,Far West,,,1322.0,7286.0,,366.0,12818.0,,,,0.0,Porterville College,"Porterville, CA - 100 E College Ave",93257,6.0,Porterville,CA,47300.0,-2.0,-119.014368,36.049256,2019-01-01
1298400,,Certificate,Certificate,Private For-Profit,Far West,,,,,14475.0,6081.0,,,0.132,,0.3333,Professional Institute of Beauty,"El Monte, CA - 10801 E. Valley Mall",91731,6.0,El Monte,CA,31080.0,348.0,-118.039028,34.075561,2019-01-01
128400,,Certificate,Associate,Public,Far West,,,1160.0,8960.0,,728.0,10596.0,,0.075,,0.0053,Santa Ana College,"Santa Ana, CA - 1530 W. 17th Street",92706-3398,6.0,Santa Ana,CA,31080.0,348.0,-117.887558,33.759309,2019-01-01
1044100,,Graduate,Graduate,Private Non-Profit,Far West,,,,,,11951.0,,,0.0,,,Pardee RAND Graduate School,"Santa Monica, CA - 1776 Main St",90401-3208,6.0,Santa Monica,CA,31080.0,348.0,-118.490655,34.00973,2019-01-01
4161700,,Certificate,Certificate,Private For-Profit,Far West,,,,,12050.0,3733.0,,,,,0.0,Shasta School of Cosmetology,"Redding, CA - 678 N Market St",96003,6.0,Redding,CA,39820.0,454.0,-122.387248,40.597114,2019-01-01
132200,,Bachelor,Graduate,Private Non-Profit,Far West,0.7475,,49504.0,49504.0,,18560.0,10242.0,,0.032,1189.0,0.581,University of Redlands,"Redlands, CA - 1200 E. Colton Ave",92373-0999,6.0,Redlands,CA,40140.0,348.0,-117.163218,34.064218,2019-01-01
118500,,Associate,Associate,Public,Far West,,,1182.0,6822.0,,968.0,7435.0,,0.188,,0.0657,College of the Redwoods,"Eureka, CA - 7351 Tompkins Hill Rd",95501-9300,6.0,Eureka,CA,21700.0,-2.0,-124.195293,40.698427,2019-01-01
720300,,Certificate,Certificate,Private For-Profit,Far West,,,,,20000.0,11959.0,,,0.145,,0.6414,Salon Success Academy-Upland,"Upland, CA - 1385 E. Foothill Blvd",91786,6.0,Upland,CA,40140.0,348.0,-117.631783,34.108247,2019-01-01
1309500,,Certificate,Certificate,Private For-Profit,Far West,,,,,20000.0,7316.0,,,0.149,,0.7195,Salon Success Academy-Corona,"Corona, CA - 2097 Compton Ave. Suite 201",92881,6.0,Corona,CA,40140.0,348.0,-117.535638,33.847649,2019-01-01
126900,,Certificate,Associate,Public,Far West,,,1360.0,6624.0,,684.0,9751.0,,0.153,,0.0029,Rio Hondo College,"Whittier, CA - 3600 Workman Mill Rd",90601-1616,6.0,Whittier,CA,31080.0,348.0,-118.033506,34.019821,2019-01-01
