oepid,accreditor,pred_degree,highest_degree,control,region,admission_rate,ccbasic,in_state_tuit,out_state_tuit,prog_year_tuit,revenue_tuit,avg_faculty_salary,two_yr_default,three_yr_default,sat_avg,prop_loan,name,address,ZIP,fips,city,state,cbsa,csa,longitude,latitude,extracted_year
100200,,Bachelor,Graduate,Public,Southeast,0.8986,,9744,18354,,7413,7101,,0.182,957,0.7503,Alabama A & M University,"Normal, AL - 4900 Meridian Street",35762,1,Normal,AL,26620,290,-86.568502,34.783368,1/1/19
105200,,Bachelor,Graduate,Public,Southeast,0.9211,,8568,19704,,13177,10717,,0.057,1220,0.5127,University of Alabama at Birmingham,"Birmingham, AL - Administration Bldg Suite 1070",35294-0110,1,Birmingham,AL,13820,142,-86.799345,33.505697,1/1/19
2503400,,Bachelor,Graduate,Private Non-Profit,Southeast,,,6900,6900,,14273,4292,,0.11,,0.8962,Amridge University,"Montgomery, AL - 1200 Taylor Rd",36117-3553,1,Montgomery,AL,33860,388,-86.17401,32.362609,1/1/19
105500,,Bachelor,Graduate,Public,Southeast,0.8087,,10714,22362,,8677,9442,,0.059,1314,0.4192,University of Alabama in Huntsville,"Huntsville, AL - 301 Sparkman Dr",35899,1,Huntsville,AL,26620,290,-86.640449,34.724557,1/1/19
100500,,Bachelor,Graduate,Public,Southeast,0.9774,,11068,19396,,10160,7754,,0.203,972,0.7845,Alabama State University,"Montgomery, AL - 915 S Jackson Street",36104-0271,1,Montgomery,AL,33860,388,-86.295677,32.364317,1/1/19
105100,,Bachelor,Graduate,Public,Southeast,0.5906,,10780,29230,,14198,10225,,0.051,1252,0.3847,The University of Alabama,"Tuscaloosa, AL - 739 University Blvd",35487-0100,1,Tuscaloosa,AL,46220,-2,-87.545978,33.211875,1/1/19
100700,,Certificate,Associate,Public,Southeast,,,4740,8610,,1771,6291,,0.196,,0.2104,Central Alabama Community College,"Alexander City, AL - 1675 Cherokee Rd",35010,1,Alexander City,AL,10760,388,-85.945266,32.92478,1/1/19
100800,,Bachelor,Graduate,Public,Southeast,,,,,,6817,8538,,0.075,,0.5079,Athens State University,"Athens, AL - 300 N Beaty St",35611,1,Athens,AL,26620,290,-86.964698,34.806793,1/1/19
831000,,Bachelor,Graduate,Public,Southeast,0.9281,,8404,17812,,7582,7678,,0.104,1084,0.5539,Auburn University at Montgomery,"Montgomery, AL - 7440 East Drive",36117-3596,1,Montgomery,AL,33860,388,-86.177544,32.36736,1/1/19
100900,,Bachelor,Graduate,Public,Southeast,0.7543,,11276,30524,,15908,10428,,0.036,1289,0.3169,Auburn University,"Auburn, AL -  ",36849,1,Auburn,AL,12220,194,-85.488258,32.599378,1/1/19
101200,,Bachelor,Bachelor,Private Non-Profit,Southeast,0.5666,,17650,17650,,11383,7688,,0.048,1232,0.4567,Birmingham-Southern College,"Birmingham, AL - 900 Arkadelphia Road",35254,1,Birmingham,AL,13820,142,-86.850552,33.513774,1/1/19
1218200,,Associate,Associate,Public,Southeast,,,4738,8608,,2036,6113,,0.15,,0.2156,Chattahoochee Valley Community College,"Phenix City, AL - 2602 College Drive",36869,1,Phenix City,AL,17980,194,-85.031485,32.42391,1/1/19
1303906,,Bachelor,Graduate,Private For-Profit,Southeast,,,17014,17014,,11386,5304,,0.116,,0.6585,South University-Montgomery,"Montgomery, AL - 5355 Vaughn Rd",36116,1,Montgomery,AL,33860,388,-86.216488,32.342684,1/1/19
101500,,Associate,Associate,Public,Southeast,,,4740,8610,,2315,6335,,0.179,,0.1519,Enterprise State Community College,"Enterprise, AL - 600 Plaza Drive",36330-1300,1,Enterprise,AL,21460,-2,-85.836956,31.297496,1/1/19
106000,,Associate,Associate,Public,Southeast,,,4740,8610,,2524,6343,,0.177,,0.2235,Coastal Alabama Community College,"Bay Minette, AL - 1900 U S Highway 31 South",36507-2698,1,Bay Minette,AL,19300,380,-87.778193,30.851343,1/1/19
100300,,Bachelor,Graduate,Private Non-Profit,Southeast,0.5227,,21690,21690,,11044,5743,,0.125,1069,0.5988,Faulkner University,"Montgomery, AL - 5345 Atlanta Hwy",36109-3390,1,Montgomery,AL,33860,388,-86.21641,32.384181,1/1/19
101700,,Associate,Associate,Public,Southeast,,,3840,7056,,1940,6433,,,,0,Gadsden State Community College,"Gadsden, AL - 1001 George Wallace Dr",35903,1,Gadsden,AL,23460,-2,-85.991438,33.994001,1/1/19
4187200,,Certificate,Certificate,Private For-Profit,Southeast,,,,,11040,5408,,,0.065,,0.5401,New Beginning College of Cosmetology,"Albertville, AL - 421 Martling Road",35951,1,Albertville,AL,10700,-2,-86.196931,34.27871,1/1/19
101800,,Associate,Associate,Public,Southeast,,,4680,8550,,2179,5991,,,,0,George C Wallace Community College-Dothan,"Dothan, AL - 1141 Wallace Drive",36303-9234,1,Dothan,AL,37120,222,-85.465836,31.315274,1/1/19
787100,,Associate,Associate,Public,Southeast,,,4740,8610,,2845,5878,,0.142,,0.3007,George C Wallace State Community College-Hanceville,"Hanceville, AL - 801 Main St NW",35077-2000,1,Hanceville,AL,18980,142,-86.781935,34.072439,1/1/19
569900,,Associate,Associate,Public,Southeast,,,4440,8310,,1538,5016,,,,0,George C Wallace State Community College-Selma,"Selma, AL - 3000 Earl Goodwin Parkway",36703-2808,1,Selma,AL,42820,388,-87.013294,32.445917,1/1/19
962107,,Certificate,Graduate,Private Non-Profit,Southeast,0.95,,14000,14000,,13723,5988,,0.127,,0.7593,Herzing University-Birmingham,"Birmingham, AL - 280 West Valley Ave",35209,1,Birmingham,AL,13820,142,-86.832465,33.468466,1/1/19
101900,,Bachelor,Bachelor,Private Non-Profit,Southeast,0.5841,,27400,27400,,11149,6810,,0.098,1100,0.7096,Huntingdon College,"Montgomery, AL - 1500 East Fairview Avenue",36106-2148,1,Montgomery,AL,33860,388,-86.284366,32.351034,1/1/19
2199700,,Bachelor,Graduate,Private Non-Profit,Southeast,,,11232,11232,,11932,4681,,0.181,,0.0345,Heritage Christian University,"Florence, AL - 3625 Helton Dr",35630-9977,1,Florence,AL,22520,-2,-87.663051,34.856153,1/1/19
526000,,Certificate,Associate,Public,Southeast,,,4710,8580,,1599,6096,,,,0,J. F. Drake State Community and Technical College,"Huntsville, AL - 3421 Meridian St N",35811,1,Huntsville,AL,26620,290,-86.572885,34.771858,1/1/19
3002500,,Certificate,Certificate,Public,Southeast,,,5328,5328,,116,5597,,,,0,J F Ingram State Technical College,"Deatsville, AL - 5375 Ingram Rd",36022,1,Deatsville,AL,33860,388,-86.392369,32.582312,1/1/19
102000,,Bachelor,Graduate,Public,Southeast,0.543,,8760,16536,,6509,7122,,0.098,1135,0.6428,Jacksonville State University,"Jacksonville, AL - 700 Pelham Road North",36265,1,Jacksonville,AL,11500,-2,-85.765321,33.822938,1/1/19
102200,,Associate,Associate,Public,Southeast,,,4800,8670,,3111,6676,,0.138,,0.1826,Jefferson State Community College,"Birmingham, AL - 2601 Carson Rd",35215-3098,1,Birmingham,AL,13820,142,-86.707233,33.652535,1/1/19
101300,,Associate,Associate,Public,Southeast,,,4820,8690,,3537,6559,,0.168,,0.2141,John C Calhoun State Community College,"Tanner, AL - 6250 U S Highway 31 N",35671,1,Tanner,AL,26620,290,-86.949674,34.645844,1/1/19
102300,,Bachelor,Bachelor,Private Non-Profit,Southeast,0.482,,18510,18510,,8288,6076,,0.177,1054,0.6794,Judson College,"Marion, AL - 302 Bibb St",36756,1,Marion,AL,-2,-2,-87.315206,32.629253,1/1/19
105900,,Certificate,Associate,Public,Southeast,,,4740,8610,,1449,6337,,,,0,Lawson State Community College,"Birmingham, AL - 3060 Wilson Rd SW",35221-1717,1,Birmingham,AL,13820,142,-86.888844,33.450814,1/1/19
102400,,Bachelor,Graduate,Public,Southeast,0.3966,,10040,18490,,7929,6461,,0.078,1059,0.693,University of West Alabama,"Livingston, AL - Station One",35470,1,Livingston,AL,-2,-2,-88.186329,32.588132,1/1/19
898800,,Certificate,Associate,Public,Southeast,,,4740,8610,,1975,5945,,,,0,Lurleen B Wallace Community College,"Andalusia, AL - 1000 Dannelly Blvd.",36420-1418,1,Andalusia,AL,-2,-2,-86.452262,31.322947,1/1/19
102600,,Associate,Associate,Public,Southeast,0.5646,,9418,15418,,2016,6302,,0.093,1155,0.4843,Marion Military Institute,"Marion, AL - 1101 Washington St",36756-3207,1,Marion,AL,-2,-2,-87.322041,32.623734,1/1/19
102800,,Bachelor,Bachelor,Private Non-Profit,Southeast,,,12132,12132,,4728,4615,,0.111,,0.9255,Miles College,"Fairfield, AL - 5500 Myron Massey Blvd",35064-2621,1,Fairfield,AL,13820,142,-86.908751,33.482442,1/1/19
102900,,Bachelor,Graduate,Private Non-Profit,Southeast,0.4704,,23230,23230,,10177,4863,,0.096,1094,0.6473,University of Mobile,"Mobile, AL - 5735 College Parkway Drive",36613-2842,1,Mobile,AL,33660,380,-88.128934,30.793247,1/1/19
100400,,Bachelor,Graduate,Public,Southeast,0.4848,,12760,25780,,8343,7710,,0.073,1170,0.5708,University of Montevallo,"Montevallo, AL - Station 6001",35115-6000,1,Montevallo,AL,13820,142,-86.865099,33.10625,1/1/19
569700,,Certificate,Associate,Public,Southeast,,,4711,8581,,2721,4650,,0.23,,0.1971,Northwest-Shoals Community College,"Muscle Shoals, AL - 800 George Wallace Blvd",35661,1,Muscle Shoals,AL,22520,-2,-87.678089,34.739788,1/1/19
101600,,Bachelor,Graduate,Public,Southeast,0.6434,,10142,18452,,7591,7898,,0.116,1134,0.5765,University of North Alabama,"Florence, AL - One Harrison Plaza",35632-0001,1,Florence,AL,22520,-2,-87.681361,34.806738,1/1/19
103100,,Associate,Associate,Public,Southeast,,,4740,8610,,2053,6335,,0.121,,0.0749,Northeast Alabama Community College,"Rainsville, AL - 138  Highway 35",35986,1,Rainsville,AL,42460,497,-85.911664,34.545471,1/1/19
103300,,Bachelor,Graduate,Private Non-Profit,Southeast,0.6589,,19732,19732,,14766,4970,,0.104,999,0.6965,Oakwood University,"Huntsville, AL - 7000 Adventist Blvd NW",35896,1,Huntsville,AL,26620,290,-86.652705,34.756344,1/1/19
569200,,Certificate,Associate,Public,Southeast,,,4800,8670,,1639,6351,,,,0,Reid State Technical College,"Evergreen, AL - 100 and Hwy 83",36401,1,Evergreen,AL,-2,-2,-86.964797,31.460265,1/1/19
103000,,Certificate,Associate,Public,Southeast,,,4740,8610,,1695,6296,,,,0,Bishop State Community College,"Mobile, AL - 351 North Broad Street",36603-5898,1,Mobile,AL,33660,380,-88.056982,30.693972,1/1/19
103600,,Bachelor,Graduate,Private Non-Profit,Southeast,0.8208,,31650,31650,,19266,8888,,0.029,1228,0.3323,Samford University,"Birmingham, AL - 800 Lakeshore Drive",35229-2240,1,Birmingham,AL,13820,142,-86.791799,33.464128,1/1/19
4067300,,Bachelor,Graduate,Private Non-Profit,Southeast,,,7410,7410,,14124,2957,,0.342,,0.9325,Selma University,"Selma, AL - 1501 Lapsley St, Dinkins Hall",36701,1,Selma,AL,42820,388,-87.032392,32.420387,1/1/19
569100,,Associate,Associate,Public,Southeast,,,4467,8907,,2510,4936,,,,0,Shelton State Community College,"Tuscaloosa, AL - 9500 Old Greensboro Rd",35405-8522,1,Tuscaloosa,AL,46220,-2,-87.56148,33.120531,1/1/19
103800,,Associate,Associate,Public,Southeast,,,4800,8670,,2830,7648,,0.205,,0.2176,Snead State Community College,"Boaz, AL - 102 Elder Street",35957-0734,1,Boaz,AL,10700,-2,-86.169897,34.201495,1/1/19
105700,,Bachelor,Graduate,Public,Southeast,0.7931,,8396,16292,,9364,7239,,0.084,1186,0.5538,University of South Alabama,"Mobile, AL - 307 N University Blvd",36688-0002,1,Mobile,AL,33660,380,-88.178711,30.696033,1/1/19
104100,,Bachelor,Graduate,Private Non-Profit,Southeast,0.6577,,39464,39464,,12357,6672,,0.059,1130,0.7923,Spring Hill College,"Mobile, AL - 4000 Dauphin St",36608-1791,1,Mobile,AL,33660,380,-88.138199,30.694751,1/1/19
104400,,Bachelor,Bachelor,Private Non-Profit,Southeast,0.3859,,11092,11092,,7563,5094,,0.231,,0.9232,Stillman College,"Tuscaloosa, AL - 3601 Stillman Boulevard",35401,1,Tuscaloosa,AL,46220,-2,-87.585278,33.200006,1/1/19
104600,,Bachelor,Bachelor,Private Non-Profit,Southeast,,,13571,13571,,8315,5861,,0.235,,0.8261,Talladega College,"Talladega, AL - 627 West Battle Street",35160,1,Talladega,AL,45180,142,-86.112704,33.433472,1/1/19
573400,,Certificate,Associate,Public,Southeast,,,4650,8520,,2293,5384,,,,0,H Councill Trenholm State Community College,"Montgomery, AL - 1225 Air Base Blvd",36108-3199,1,Montgomery,AL,33860,388,-86.343057,32.350109,1/1/19
104700,,Bachelor,Graduate,Public,Southeast,0.8767,,8908,16708,,9399,6639,,0.098,1082,0.6253,Troy University,"Troy, AL - University Avenue",36082-0001,1,Troy,AL,45980,-2,-85.957094,31.800672,1/1/19
105000,,Bachelor,Graduate,Private Non-Profit,Southeast,0.5182,,22170,22170,,15883,4810,,0.135,1119,0.4744,Tuskegee University,"Tuskegee, AL - Kresge Center, 3rd Floor",36088-1920,1,Tuskegee,AL,-2,-2,-85.708492,32.4309,1/1/19
2170600,,Bachelor,Graduate,Private Non-Profit,Southeast,,,,,,14842,6136,,0.061,,0.534,United States Sports Academy,"Daphne, AL - One Academy Drive",36526-7055,1,Daphne,AL,19300,380,-87.91163,30.639329,1/1/19
573300,,Certificate,Associate,Public,Southeast,,,5086,9214,,2534,6682,,,,0,Bevill State Community College,"Jasper, AL - 1411 Indiana Avenue",35501,1,Jasper,AL,27530,142,-87.266406,33.836929,1/1/19
1146200,,Bachelor,Graduate,Public,Far West,0.8115,,8580,24762,,7253,9128,,0.105,,0.2243,University of Alaska Anchorage,"Anchorage, AK - 3211 Providence Drive",99508,2,Anchorage,AK,11260,-2,-149.82619,61.190163,1/1/19
884300,,Bachelor,Bachelor,Private Non-Profit,Far West,,,9600,9600,,8091,3500,,0.1,,0.3077,Alaska Bible College,"Palmer, AK - 248 E Elmwood Ave",99645,2,Palmer,AK,11260,-2,-149.111972,61.598553,1/1/19
106300,,Bachelor,Graduate,Public,Far West,0.7611,,6657,20218,,8210,9584,,0.107,1128,0.2277,University of Alaska Fairbanks,"Fairbanks, AK - 1731 South Chandalar Drive",99775,2,Fairbanks,AK,21820,-2,-147.823146,64.85756,1/1/19
106500,,Certificate,Graduate,Public,Far West,0.6333,,7092,19856,,7626,8192,,0.098,,0.1922,University of Alaska Southeast,"Juneau, AK - 11066 Auke Lake Way",99801-8697,2,Juneau,AK,27940,-2,-134.638255,58.384846,1/1/19
106100,,Bachelor,Graduate,Private Non-Profit,Far West,0.8425,,20760,20760,,13127,5467,,0.05,,0.4881,Alaska Pacific University,"Anchorage, AK - 4101 University Dr",99508,2,Anchorage,AK,11260,-2,-149.804168,61.190968,1/1/19
3160300,,Certificate,Certificate,Public,Far West,,,,,3490,6522,,,0.072,,0.0185,Alaska Vocational Technical Center,"Seward, AK - PO Box 889",99664-0889,2,Seward,AK,-2,-2,-149.444487,60.110626,1/1/19
2576900,,Certificate,Graduate,Private For-Profit,Far West,1,,22655,22655,,5823,4711,,0.131,,0.7222,Charter College,"Vancouver, WA - 17200 S.E. Mill Plain Boulevard, Suite 100",98683-7575,53,Vancouver,WA,38900,440,-122.494766,45.617798,1/1/19
2541000,,Certificate,Associate,Private For-Profit,Far West,,,,,15340,8308,4068,,0.186,,0.8208,Alaska Career College,"Anchorage, AK - 1415 E Tudor Road",99507-1033,2,Anchorage,AK,11260,-2,-149.856954,61.181443,1/1/19
966403,,Certificate,Certificate,Private For-Profit,Southwest,,,,,19200,9489,,,0.12,,0.5225,Empire Beauty School-Tucson,"Tucson, AZ - 3030 E Speedway Blvd",85716,4,Tucson,AZ,46060,536,-110.927187,32.235657,1/1/19
2100600,,Certificate,Associate,Private For-Profit,Southwest,0.8951,,,,14322,10702,4069,,0.181,,0.1973,Carrington College-Phoenix North,"Phoenix, AZ - 8503 N. 27th Ave.",85051-4063,4,Phoenix,AZ,38060,429,-112.116105,33.561689,1/1/19
2100611,,Certificate,Associate,Private For-Profit,Southwest,,,,,14322,14071,6037,,0.181,,0.282,Carrington College-Mesa,"Mesa, AZ - 1001 W. Southern Ave., Ste. 130",85210,4,Mesa,AZ,38060,429,-111.853218,33.39248,1/1/19
2100607,,Certificate,Certificate,Private For-Profit,Southwest,0.8736,,,,14322,11178,4931,,0.181,,0.1771,Carrington College-Tucson,"Tucson, AZ - 201 N. Bonita Ave., Ste. 101",85745,4,Tucson,AZ,46060,536,-110.983056,32.224391,1/1/19
3120300,,Associate,Associate,Private Non-Profit,Southwest,,,16972,16972,,13124,7223,,0.185,,0.8205,CollegeAmerica-Flagstaff,"Flagstaff, AZ - 399 Malpais",86001,4,Flagstaff,AZ,22380,-2,-111.657673,35.194495,1/1/19
886400,,Certificate,Certificate,Private For-Profit,Southwest,,,,,14500,8863,,,0.057,,0.5773,Arizona Academy of Beauty-East,"Tucson, AZ - 5631 E Speedway Blvd",85712,4,Tucson,AZ,46060,536,-110.872305,32.237253,1/1/19
2306807,,Certificate,Certificate,Private For-Profit,Southwest,,,,,19220,19545,,,0.255,,0.5948,Platt College-Arizona Automotive Institute Arizona,"Glendale, AZ - 6829 N 46th Ave",85301-3579,4,Glendale,AZ,38060,429,-112.157344,33.537249,1/1/19
2218800,,Certificate,Graduate,Private For-Profit,Southwest,,,,,85000,29009,6204,,0.206,,0.6965,Brookline College-Phoenix,"Phoenix, AZ - 2445 W. Dunlap Ave., Ste. 100",85021,4,Phoenix,AZ,38060,429,-112.112473,33.566102,1/1/19
108100,,Bachelor,Graduate,Public,Southwest,0.8478,,10822,28336,,20364,11451,,0.062,1240,0.3652,Arizona State University-Tempe,"Tempe, AZ - University Drive and Mill Avenue",85287,4,Tempe,AZ,38060,429,-111.934383,33.417721,1/1/19
107100,,Certificate,Associate,Public,Southwest,,,2720,9710,,904,6333,,0.183,,0.0188,Arizona Western College,"Yuma, AZ - 2020 S. Avenue 8E",85365-8834,4,Yuma,AZ,49740,-2,-114.495968,32.689306,1/1/19
108300,,Bachelor,Graduate,Public,Southwest,0.8442,,12467,36366,,15599,11147,,0.06,1198,0.3749,University of Arizona,"Tucson, AZ - 1401 E University",85721-0066,4,Tucson,AZ,46060,536,-110.950815,32.232672,1/1/19
2491500,,Bachelor,Bachelor,Private For-Profit,Southwest,,,23069,23069,,20889,5226,,0.196,,0.6885,Southwest University of Visual Arts-Tucson,"Tucson, AZ - 2525 N Country Club Rd",85716,4,Tucson,AZ,46060,536,-110.927265,32.252879,1/1/19
728300,,Certificate,Associate,Public,Southwest,,,2580,11100,,1429,6498,,0.21,,0.0871,Central Arizona College,"Coolidge, AZ - 8470 N Overfield Rd",85128-9030,4,Coolidge,AZ,38060,429,-111.652501,32.957092,1/1/19
2280500,,Certificate,Certificate,Private For-Profit,Southwest,,,,,12500,12372,,,0.111,,0.5467,Charles of Italy Beauty College,"Lake Havasu City, AZ - 1987 McCulloch Blvd, Suite 205",86403,4,Lake Havasu City,AZ,29420,-2,-114.332686,34.477485,1/1/19
107200,,Associate,Associate,Public,Southwest,,,2040,6240,,877,6550,,0.068,,0.0683,Cochise County Community College District,"Sierra Vista, AZ - 901 N Colombo Ave",85635-2317,4,Sierra Vista,AZ,43420,-2,-110.246946,31.564597,1/1/19
1054207,,Certificate,Certificate,Private For-Profit,Southwest,,,,,19200,8790,,,0.133,,0.5484,Empire Beauty School-Flagstaff,"Flagstaff, AZ - 1790 E Rte 66",86004,4,Flagstaff,AZ,22380,-2,-111.625936,35.197151,1/1/19
1054208,,Certificate,Certificate,Private For-Profit,Southwest,,,,,19200,9258,,,0.133,,0.5439,Empire Beauty School-Chandler,"Chandler, AZ - 2978 N Alma School Rd #1-3",85224,4,Chandler,AZ,38060,429,-111.860423,33.347586,1/1/19
2582700,,Certificate,Certificate,Private For-Profit,Southwest,,,,,13317,5756,,,,,0.8571,Cortiva Institute-Tucson,"Tucson, AZ - 6390 E. Broadway, Suite 100",85710,4,Tucson,AZ,46060,536,-110.856785,32.21901,1/1/19
1085800,,Certificate,Certificate,Private For-Profit,Southwest,,,,,16800,6829,,,0.161,,0.666,Avalon School of Cosmetology-Mesa,"Mesa, AZ - 2111 S Alma School Rd Ste 21",85210,4,Mesa,AZ,38060,429,-111.858305,33.376583,1/1/19
107300,,Certificate,Associate,Public,Southwest,,,2700,11400,,869,8091,,,,0,Eastern Arizona College,"Thatcher, AZ - 615 N. Stadium Ave.",85552-0769,4,Thatcher,AZ,40940,-2,-109.76234,32.843664,1/1/19
147902,,Bachelor,Graduate,Private Non-Profit,Southwest,0.6723,,35654,35654,,26166,9354,,0.042,,0.4735,Embry-Riddle Aeronautical University-Prescott,"Prescott, AZ - 3700 Willow Creek Road",86301-3720,4,Prescott,AZ,39150,-2,-112.449741,34.616766,1/1/19
2533200,,Graduate,Graduate,Private Non-Profit,Southwest,,,,,,36215,4778,,0,,,School of Architecture at Taliesin,"Scottsdale, AZ - 12621 N. Frank Lloyd Wright Blvd",85259,4,Scottsdale,AZ,38060,429,-111.845411,33.607097,1/1/19
107600,,Certificate,Associate,Public,Southwest,,,2070,7854,,1758,9055,,0.162,,0.1072,Glendale Community College,"Glendale, AZ - 6000 W Olive Ave",85302,4,Glendale,AZ,38060,429,-112.190735,33.570226,1/1/19
107400,,Bachelor,Graduate,Private For-Profit,Southwest,0.732,,17050,17050,,11035,6546,,0.056,,0.5942,Grand Canyon University,"Phoenix, AZ - 3300 W Camelback Rd",85017,4,Phoenix,AZ,38060,429,-112.129929,33.513231,1/1/19
830300,,Certificate,Associate,Public,Southwest,,,2070,7854,,2554,8855,,0.157,,0.1535,GateWay Community College,"Phoenix, AZ - 108 N. 40th Street",85034,4,Phoenix,AZ,38060,429,-111.997077,33.449686,1/1/19
107700,,Certificate,Associate,Public,Southwest,,,2070,7854,,2311,9308,,0.167,,0.13,Mesa Community College,"Mesa, AZ - 1833 W Southern Ave",85202,4,Mesa,AZ,38060,429,-111.871255,33.390323,1/1/19
1186400,,Associate,Associate,Public,Southwest,,,2112,6972,,2075,6415,,0.148,,0.1143,Mohave Community College,"Kingman, AZ - 1971 Jagerson Ave",86409-1238,4,Kingman,AZ,29420,-2,-114.029838,35.270996,1/1/19
2100500,,Certificate,Certificate,Private For-Profit,Southwest,,,,,19450,9804,,,0.144,,0.5116,Universal Technical Institute of Arizona Inc-Motorcycle Mechanics Institute Division,"Phoenix, AZ - 2844 W Deer Valley Rd",85027,4,Phoenix,AZ,38060,429,-112.121336,33.684428,1/1/19
824600,,Associate,Bachelor,Public,Southwest,,,1410,1410,,357,5714,,,,0,Dine College,"Tsaile, AZ - Route 12, One Circle Drive",86556,4,Tsaile,AZ,-2,-2,-109.21684,36.293328,1/1/19
108200,,Bachelor,Graduate,Public,Southwest,0.8262,,11564,25828,,7767,8207,,0.066,,0.452,Northern Arizona University,"Flagstaff, AZ - 1900 S Knoles Dr, Babbitt Administrative Center, Room 200",86011-4092,4,Flagstaff,AZ,22380,-2,-111.653724,35.188449,1/1/19
1186200,,Certificate,Associate,Public,Southwest,,,1866,8610,,1347,6141,,,,0,Northland Pioneer College,"Holbrook, AZ - 2251 E. Navajo Blvd.",86025-0610,4,Holbrook,AZ,43320,-2,-110.142199,34.93031,1/1/19
193701,,Bachelor,Graduate,Private Non-Profit,Southwest,,,,,,7552,6871,,0.068,,0.6824,Ottawa University-Phoenix,"Phoenix, AZ - 9414 North 25th Avenue",85021,4,Phoenix,AZ,38060,429,-112.113001,33.572173,1/1/19
107800,,Certificate,Associate,Public,Southwest,,,2070,7854,,1708,8921,,0.178,,0.1331,Phoenix College,"Phoenix, AZ - 1202 W Thomas Rd",85013,4,Phoenix,AZ,38060,429,-112.088293,33.481361,1/1/19
2623800,,Certificate,Certificate,Private For-Profit,Southwest,,,,,14642,9195,,,,,0.8832,Cortiva Institute-Scottsdale,"Scottsdale, AZ - 8010 East McDowell Road #214",85257,4,Scottsdale,AZ,38060,429,-111.90807,33.466153,1/1/19
726600,,Certificate,Associate,Public,Southwest,,,2142,7458,,2036,5380,,0.186,,0.0952,Pima Community College,"Tucson, AZ - 4905C East  Broadway Blvd.",85709-1275,4,Tucson,AZ,46060,536,-110.886659,32.222125,1/1/19
2217100,,Certificate,Bachelor,Private For-Profit,Southwest,,,,,13377,6906,5157,,0.07,,0.7123,Pima Medical Institute-Tucson,"Tucson, AZ - 2121 N Craycroft Road, Bldg 1",85712,4,Tucson,AZ,46060,536,-110.878783,32.248067,1/1/19
2217103,,Certificate,Associate,Private For-Profit,Southwest,,,,,13377,6854,5019,,0.07,,0.7128,Pima Medical Institute-Albuquerque,"Albuquerque, NM - 4400 Cutler Avenue NE",87110,35,Albuquerque,NM,10740,106,-106.59488,35.104855,1/1/19
2065300,,Bachelor,Graduate,Private Non-Profit,Southwest,0.9516,,31485,31485,,15965,5286,,0.069,,0.6534,Prescott College,"Prescott, AZ - 220 Grove Ave",86301,4,Prescott,AZ,39150,-2,-112.477185,34.5452,1/1/19
1168900,,Certificate,Associate,Private For-Profit,Southwest,,,,,19924,9343,4239,,0.085,,0.62,Refrigeration School Inc,"Phoenix, AZ - 4210 E Washington Street",85034-1816,4,Phoenix,AZ,38060,429,-111.989357,33.448692,1/1/19
2177500,,Certificate,Associate,Public,Southwest,,,2070,7854,,2641,6182,,0.18,,0.1037,Rio Salado College,"Tempe, AZ - 2323 W 14th St",85281,4,Tempe,AZ,38060,429,-111.97417,33.413309,1/1/19
2113800,,Certificate,Certificate,Private For-Profit,Southwest,,,,,10950,11621,,,0.07,,0.4255,Roberto-Venn School of Luthiery,"Phoenix, AZ - 1012 NW Grand Ave",85007,4,Phoenix,AZ,38060,429,-112.086161,33.45489,1/1/19
830400,,Associate,Associate,Public,Southwest,,,2070,7854,,2426,9120,,0.146,,0.1017,Scottsdale Community College,"Scottsdale, AZ - 9000 E Chaparral Rd",85256,4,Scottsdale,AZ,38060,429,-111.885186,33.51135,1/1/19
2146600,,Associate,Associate,Public,Southwest,,,2070,7854,,1289,9028,,0.203,,0.1294,South Mountain Community College,"Phoenix, AZ - 7050 S 24th St",85042,4,Phoenix,AZ,38060,429,-112.032635,33.382406,1/1/19
711300,,Bachelor,Bachelor,Private Non-Profit,Southwest,0.5644,,26796,26796,,11155,4607,,0.121,1032,0.5763,Arizona Christian University,"Glendale, AZ - 1 W. Firestorm Way",85306-3216,4,Glendale,AZ,38060,429,-112.181776,33.622952,1/1/19
822100,,Associate,Associate,Private For-Profit,Southwest,,,,,45950,13602,5214,,0.148,,0.6197,Universal Technical Institute of Arizona Inc,"Avondale, AZ - 10695 West Pierce Street",85323,4,Avondale,AZ,38060,429,-112.288123,33.453005,1/1/19
945915,,Certificate,Certificate,Private For-Profit,Southwest,,,,,19200,9302,,,0.152,,0.5367,Empire Beauty School-NW Phoenix,"Phoenix, AZ - 2727 W. Glendale Ave. #200",85051,4,Phoenix,AZ,38060,429,-112.118168,33.538093,1/1/19
107900,,Certificate,Associate,Public,Southwest,,,2360,8998,,2234,7392,,0.224,,0.0836,Yavapai College,"Prescott, AZ - 1100 E Sheldon St",86301,4,Prescott,AZ,39150,-2,-112.453395,34.547495,1/1/19
110100,,Bachelor,Graduate,Public,Southeast,0.7933,,9544,21754,,5354,7623,,0.085,1099,0.405,University of Arkansas at Little Rock,"Little Rock, AR - 2801 S University Ave",72204,5,Little Rock,AR,30780,340,-92.339778,34.723254,1/1/19
110900,,Bachelor,Graduate,Public,Southeast,,,,,,18147,9396,,0.017,,0.6068,University of Arkansas for Medical Sciences,"Little Rock, AR - 4301 W Markham",72205-7199,5,Little Rock,AR,30780,340,-92.320046,34.749048,1/1/19
108700,,Associate,Bachelor,Private Non-Profit,Southeast,,,8760,8760,,8924,4407,,0.356,,0.7555,Arkansas Baptist College,"Little Rock, AR - 1600 Dr. Martin Luther King Jr. Drive",72202-6068,5,Little Rock,AR,30780,340,-92.290555,34.734751,1/1/19
3005100,,Certificate,Certificate,Private For-Profit,Southeast,,,,,18690,3327,,,0.064,,0.6227,Arkansas Beauty School-Little Rock,"Little Rock, AR - 8521 Geyer Springs Road Unit 30",72209,5,Little Rock,AR,30780,340,-92.343366,34.672171,1/1/19
3997300,,Certificate,Certificate,Private For-Profit,Southeast,,,,,14400,11597,,,0.093,,0.65,Arkansas Beauty College,"Russellville, AR - 109 N Commerce St",72801,5,Russellville,AR,40780,-2,-93.135369,35.27902,1/1/19
108800,,Bachelor,Bachelor,Private Non-Profit,Southeast,0.4986,,28790,28790,,9961,6655,,0.114,1195,0.5863,Lyon College,"Batesville, AR - 2300 Highland Road",72501,5,Batesville,AR,12900,-2,-91.625354,35.777619,1/1/19
3023400,,Certificate,Certificate,Private For-Profit,Southeast,,,,,18400,8666,,,0.208,,0.6197,Arkansas College of Barbering and Hair Design,"North Little Rock, AR - 200 E Washington Ave",72114,5,North Little Rock,AR,30780,340,-92.266429,34.753843,1/1/19
2363500,,Certificate,Certificate,Private For-Profit,Southeast,,,,,12980,8232,,,0.107,,0.6167,Arthur's Beauty College Inc-Fort Smith,"Fort Smith, AR - 2000 North B St",72901-3342,5,Fort Smith,AR,22900,-2,-94.410967,35.379955,1/1/19
110800,,Bachelor,Graduate,Public,Southeast,0.7747,,9130,25168,,9627,9866,,0.049,1238,0.3739,University of Arkansas,"Fayetteville, AR - Administration Bldg 425",72701,5,Fayetteville,AR,22220,-2,-94.176981,36.070009,1/1/19
108600,,Bachelor,Graduate,Public,Southeast,0.4435,,8038,14398,,4113,5894,,0.173,978,0.6718,University of Arkansas at Pine Bluff,"Pine Bluff, AR - 1200 N University Mail Slot 4789",71601,5,Pine Bluff,AR,38220,340,-92.018683,34.244031,1/1/19
109100,,Certificate,Associate,Public,Southeast,,,2880,4608,,2236,5040,,0.08,,0.1289,Arkansas State University-Beebe,"Beebe, AR - 1000 Iowa Street",72012-1000,5,Beebe,AR,42620,340,-91.895351,35.074176,1/1/19
109000,,Bachelor,Graduate,Public,Southeast,0.7721,,8607,15297,,4037,6902,,0.059,1189,0.5104,Arkansas State University-Main Campus,"Jonesboro, AR - 2105 E. Aggie Road",72401,5,Jonesboro,AR,27860,308,-90.679988,35.842388,1/1/19
109000,,Bachelor,Graduate,Public,Southeast,0.7721,,8607,15297,,4037,6902,,0.059,1189,0.5104,Arkansas State University System,"Little Rock, AR - 501 Woodlane Drive, Suite 600",72201,5,Little Rock,AR,30780,340,-92.28758,34.74582,1/1/19
108900,,Bachelor,Graduate,Public,Southeast,0.9024,,7254,12678,,4725,6833,,0.091,,0.4117,Arkansas Tech University,"Russellville, AR - Administration Bldg 200; 1509 N Boulder Ave",72801-2222,5,Russellville,AR,40780,-2,-93.13562,35.293237,1/1/19
108500,,Certificate,Graduate,Public,Southeast,,,7462,13312,,4182,5696,,0.144,,0.6014,University of Arkansas at Monticello,"Monticello, AR - Highway 425 South",71656,5,Monticello,AR,-2,-2,-91.811153,33.590909,1/1/19
2538500,,Certificate,Certificate,Private For-Profit,Southeast,,,,,12980,9522,,,0.077,,0.5595,Arthur's Beauty College Inc-Jacksonville,"Jacksonville, AR - 2600 John Harden Dr",72076,5,Jacksonville,AR,30780,340,-92.102579,34.891572,1/1/19
3105200,,Associate,Associate,Private Non-Profit,Southeast,0.6667,,10439,10439,,4647,6569,,0.043,1015,0.8077,Baptist Health College Little Rock,"Little Rock, AR - 11900 COLONEL GLENN RD STE 1000",72210-2827,5,Little Rock,AR,30780,340,-92.40692,34.713115,1/1/19
2052200,,Certificate,Associate,Public,Southeast,,,3168,5448,,2408,4934,,0.116,,0.2072,Black River Technical College,"Pocahontas, AR - 1410 Hwy 304 East",72455,5,Pocahontas,AR,-2,-2,-90.951033,36.239793,1/1/19
109200,,Bachelor,Graduate,Public,Southeast,0.911,,8752,15275,,5495,7040,,0.075,1186,0.5234,University of Central Arkansas,"Conway, AR - 201 Donaghey Ave",72035-0001,5,Conway,AR,30780,340,-92.457672,35.077945,1/1/19
109300,,Bachelor,Bachelor,Private Non-Profit,Southeast,0.6074,,16200,16200,,9880,5448,,0.098,1004,0.6094,Central Baptist College,"Conway, AR - 1501 College Avenue",72034,5,Conway,AR,30780,340,-92.445021,35.083838,1/1/19
2220900,,Certificate,Associate,Public,Southeast,,,3450,4290,,2267,5087,,,,0,Cossatot Community College of the University of Arkansas,"De Queen, AR - 183 College Drive",71832,5,De Queen,AR,-2,-2,-94.3673,34.043389,1/1/19
109500,,Bachelor,Bachelor,Private Non-Profit,Southeast,,,13600,13600,,7608,4175,,0.159,,0.7196,Crowley's Ridge College,"Paragould, AR - 100 College Dr",72450,5,Paragould,AR,37500,308,-90.584395,36.064845,1/1/19
704400,,Certificate,Certificate,Public,Southeast,,,1350,1350,,447,,,,,0,Crowley's Ridge Technical Institute,"Forrest City, AR - 1620 Newcastle Road",72335-0925,5,Forrest City,AR,22620,368,-90.767321,35.039816,1/1/19
1226000,,Certificate,Associate,Public,Southeast,,,2880,3720,,2535,4755,,0.095,,0.0469,East Arkansas Community College,"Forrest City, AR - 1700 Newcastle Rd",72335-2204,5,Forrest City,AR,22620,368,-90.767726,35.041655,1/1/19
2272400,,Certificate,Certificate,Private For-Profit,Southeast,,,,,10700,3815,,,0.198,,0.8886,Eastern College of Health Vocations-Little Rock,"Little Rock, AR - 200 South University Avenue",72205,5,Little Rock,AR,30780,340,-92.341891,34.75128,1/1/19
3124900,,Certificate,Certificate,Private For-Profit,Southeast,,,,,15500,10217,,,0.176,,0.6989,Imagine-Paul Mitchell Partner School,"North Little Rock, AR - 4201 E McCain Blvd",72117,5,North Little Rock,AR,30780,340,-92.222202,34.789913,1/1/19
1210500,,Certificate,Associate,Public,Southeast,,,3750,5300,,2355,5258,,0.127,,0.3396,National Park College,"Hot Springs, AR - 101 College Dr",71913,5,Hot Springs,AR,26300,284,-93.119248,34.512687,1/1/19
2073500,,Certificate,Associate,Public,Southeast,,,2482,3274,,1167,4339,,0.093,,0.1717,University of Arkansas Community College-Batesville,"Batesville, AR - 2005 White Drive",72503-3350,5,Batesville,AR,12900,-2,-91.615852,35.792923,1/1/19
109700,,Bachelor,Graduate,Private Non-Profit,Southeast,0.7462,,19845,19845,,14806,7473,,0.038,1222,0.5397,Harding University,"Searcy, AR - 915 E. Market Ave.",72149-5615,5,Searcy,AR,42620,340,-91.726143,35.247386,1/1/19
109800,,Bachelor,Graduate,Public,Southeast,0.9055,,8530,10180,,3495,6703,,0.073,1116,0.5325,Henderson State University,"Arkadelphia, AR - 1100 Henderson Street",71999-0001,5,Arkadelphia,AR,11660,-2,-93.059703,34.128155,1/1/19
109900,,Bachelor,Graduate,Private Non-Profit,Southeast,0.7217,,45790,45790,,10750,7708,,0.034,1346,0.5238,Hendrix College,"Conway, AR - 1600 Washington Ave",72032-3080,5,Conway,AR,30780,340,-92.443256,35.101565,1/1/19
3007100,,Certificate,Certificate,Private For-Profit,Southeast,,,,,15000,9231,,,0.064,,0.8511,Hot Springs Beauty College,"Hot Springs, AR - 100 Cones Rd",71901,5,Hot Springs,AR,26300,284,-93.037277,34.496057,1/1/19
2330800,,Associate,Associate,Private Non-Profit,Southeast,,,,,,4592,6959,,0.066,,0.5625,Jefferson Regional Medical Center School of Nursing,"Pine Bluff, AR - 1600 West 40th Avenue",71603,5,Pine Bluff,AR,38220,340,-92.018045,34.187831,1/1/19
110000,,Bachelor,Graduate,Private Non-Profit,Southeast,0.7715,,26928,26928,,11732,7049,,0.038,1257,0.4523,John Brown University,"Siloam Springs, AR - 2000 W University St",72761,5,Siloam Springs,AR,22220,-2,-94.560283,36.189812,1/1/19
2341700,,Certificate,Certificate,Private For-Profit,Southeast,,,,,15944,11733,,,0.316,,0.7186,Career Academy of Hair Design,"Springdale, AR - 346 E. Robinson Ave",72764-7128,5,Springdale,AR,22220,-2,-94.12947,36.167605,1/1/19
1074100,,Certificate,Certificate,Private For-Profit,Southeast,,,,,15000,8239,,,0.121,,0.7174,Academy of Salon and Spa,"Fort Smith, AR - 311 S 16th St",72901,5,Fort Smith,AR,22900,-2,-94.41616,35.38097,1/1/19
2348200,,Certificate,Associate,Public,Southeast,,,2674,4114,,1879,4311,,,,0,Arkansas State University Mid-South,"West Memphis, AR - 2000 W.  Broadway",72301-3829,5,West Memphis,AR,32820,368,-90.22285,35.145736,1/1/19
1286000,,Certificate,Associate,Public,Southeast,,,2318,3998,,1154,5202,,0.119,,0,Arkansas Northeastern College,"Blytheville, AR - 2501 S Division",72316-1109,5,Blytheville,AR,14180,-2,-89.921005,35.898597,1/1/19
2284200,,Certificate,Certificate,Private For-Profit,Southeast,,,,,15825,3478,,,0.17,,0.3768,New Tyler Barber College Inc,"North Little Rock, AR - 1221 E 7th St",72114-4973,5,North Little Rock,AR,30780,340,-92.254171,34.760085,1/1/19
1226100,,Certificate,Associate,Public,Southeast,,,2280,4632,,1108,5246,,0.13,,0.1356,North Arkansas College,"Harrison, AR - 1515 Pioneer Dr",72601-5508,5,Harrison,AR,25460,-2,-93.08844,36.219909,1/1/19
2073700,,Certificate,Certificate,Public,Southeast,,,2326,2326,,2524,,,,,0,Northwest Technical Institute,"Springdale, AR - 709 S Old Missouri Rd",72764,5,Springdale,AR,22220,-2,-94.115346,36.178032,1/1/19
110200,,Bachelor,Bachelor,Private Non-Profit,Southeast,0.636,,26790,26790,,10407,6418,,0.073,1193,0.6369,Ouachita Baptist University,"Arkadelphia, AR - 410 Ouachita St",71998-0001,5,Arkadelphia,AR,11660,-2,-93.052471,34.126093,1/1/19
997600,,Certificate,Associate,Public,Southeast,,,3890,6800,,1934,4781,,0.105,,0.1863,Arkansas State University Three Rivers,"Malvern, AR - One College Circle",72104-0816,5,Malvern,AR,31680,284,-92.821416,34.378745,1/1/19
2087000,,Certificate,Associate,Public,Southeast,,,3004,5356,,1155,4627,,0.115,,0.2277,Ozarka College,"Melbourne, AR - 218 College Dr",72556-0010,5,Melbourne,AR,-2,-2,-91.896355,36.053031,1/1/19
109400,,Bachelor,Bachelor,Private Non-Profit,Southeast,0.5232,,24230,24230,,8782,6740,,0.15,1079,0.5099,University of the Ozarks,"Clarksville, AR - 415 N College Ave",72830,5,Clarksville,AR,-2,-2,-93.467221,35.476278,1/1/19
524500,,Certificate,Associate,Public,Southeast,0.7415,,3140,4076,,2335,5033,,0.155,,0.2249,University of Arkansas Community College-Morrilton,"Morrilton, AR - 1537 University Blvd.",72110,5,Morrilton,AR,-2,-2,-92.728507,35.172136,1/1/19
110300,,Bachelor,Bachelor,Private Non-Profit,Southeast,,,13014,13014,,7747,6045,,0.239,,0.8474,Philander Smith College,"Little Rock, AR - 900 W. Daisy Bates Drive",72202-3799,5,Little Rock,AR,30780,340,-92.283015,34.737131,1/1/19
110400,,Certificate,Associate,Public,Southeast,,,2930,4760,,911,4883,,0.175,,0,Phillips Community College of the University of Arkansas,"Helena, AR - 1000 Campus Drive",72342-0785,5,Helena,AR,25760,-2,-90.616884,34.546155,1/1/19
570700,,Certificate,Associate,Public,Southeast,,,3855,6735,,2455,4801,,0.195,,0.5065,Southeast Arkansas College,"Pine Bluff, AR - 1900 S Hazel Street",71603,5,Pine Bluff,AR,38220,340,-92.025936,34.210309,1/1/19
2202400,,Certificate,Certificate,Private For-Profit,Southeast,,,,,14350,8071,,,0.147,,0.7,Professional Cosmetology Education Center,"El Dorado, AR - 460 North Washington",71730-4009,5,El Dorado,AR,20980,-2,-92.664101,33.216032,1/1/19
2075300,,Associate,Associate,Public,Southeast,,,5252,6447,,3340,4859,,0.113,,0.4328,University of Arkansas-Pulaski Technical College,"North Little Rock, AR - 3000 W Scenic Dr",72118-3347,5,North Little Rock,AR,30780,340,-92.299184,34.782783,1/1/19
573200,,Certificate,Associate,Public,Southeast,,,2830,4090,,1613,4317,,0.125,,0,University of Arkansas Hope-Texarkana,"Hope, AR - 2500 S Main",71801,5,Hope,AR,26260,-2,-93.596762,33.641665,1/1/19
2111100,,Certificate,Associate,Public,Southeast,,,2880,3936,,988,4615,,,,0,University of Arkansas Community College Rich Mountain,"Mena, AR - 1100 College Dr",71953,5,Mena,AR,-2,-2,-94.219799,34.591449,1/1/19
792100,,Certificate,Certificate,Private For-Profit,Southeast,,,,,14250,10517,,,0.13,,0.5641,Paul Mitchell the School-Arkansas,"Fayetteville, AR - 4156 N Steele Blvd",72703,5,Fayetteville,AR,22220,-2,-94.153892,36.126373,1/1/19
2569600,,Certificate,Certificate,Private For-Profit,Southeast,,,,,14900,11872,,,0.083,,0.6847,Searcy Beauty College,"Searcy, AR - 1004 S Main St",72143,5,Searcy,AR,42620,340,-91.735135,35.239148,1/1/19
110500,,Associate,Associate,Private Non-Profit,Southeast,,,5500,5500,,7874,4218,,0.238,,0.9827,Shorter College,"N Little Rock, AR - 604 Locust St",72114,5,N Little Rock,AR,30780,340,-92.261331,34.75933,1/1/19
110600,,Bachelor,Bachelor,Private Non-Profit,Southeast,0.5639,,17320,17320,,8050,5355,,0.095,1034,0.6827,Williams Baptist University,"Walnut Ridge, AR - 60 W Fulbright Avenue",72476,5,Walnut Ridge,AR,-2,-2,-90.940277,36.125676,1/1/19
2074600,,Certificate,Associate,Public,Southeast,,,2700,4812,,2639,4903,,0.216,,0.3059,South Arkansas Community College,"El Dorado, AR - 300 S West Ave",71731-7010,5,El Dorado,AR,20980,-2,-92.666087,33.209446,1/1/19
110700,,Bachelor,Graduate,Public,Southeast,0.6878,,8756,12866,,4716,6861,,0.159,1105,0.7603,Southern Arkansas University Main Campus,"Magnolia, AR - 100 E. University",71753,5,Magnolia,AR,31620,-2,-93.235922,33.291618,1/1/19
773800,,Certificate,Associate,Public,Southeast,,,4977,6417,,1984,4239,,0.205,,0.1129,Southern Arkansas University Tech,"Camden, AR - 6415 Spellman Road",71701-1906,5,Camden,AR,15780,-2,-92.721629,33.628367,1/1/19
3214300,,Certificate,Certificate,Private For-Profit,Southeast,,,,,13712,19273,,,,,0.6,Velvatex College of Beauty Culture,"Little Rock, AR - 1520 Martin Luther King Dr",72202-5452,5,Little Rock,AR,30780,340,-92.289597,34.735685,1/1/19
111000,,Bachelor,Graduate,Public,Southeast,,,5593,12666,,3377,6921,,0.164,,0.3656,University of Arkansas-Fort Smith,"Fort Smith, AR - 5210 Grand Ave",72913-3649,5,Fort Smith,AR,22900,-2,-94.373729,35.384184,1/1/19
753100,,Bachelor,Graduate,Private For-Profit,Far West,,,22308,22308,,31908,8492,,0.058,,0.4586,Academy of Art University,"San Francisco, CA - 79 New Montgomery",94105,6,San Francisco,CA,41860,488,-122.400578,37.787943,1/1/19
3288300,,Graduate,Graduate,Private Non-Profit,Far West,,,,,,8320,,,0,,,Academy of Chinese Culture and Health Sciences,"Oakland, CA - 1600 Broadway, Ste. 200",94612,6,Oakland,CA,41860,488,-122.269839,37.805972,1/1/19
2342400,,Certificate,Certificate,Private For-Profit,Far West,,,,,15600,16236,,,0.311,,1,The Academy of Radio and TV Broadcasting,"Huntington Beach, CA - 16052 Beach Blvd St 263n",92647,6,Huntington Beach,CA,31080,348,-117.987762,33.729535,1/1/19
2258600,,Certificate,Certificate,Private For-Profit,Far West,,,,,19600,6346,,,0.244,,0.5688,Avalon School of Cosmetology-Alameda,"Alameda, CA - 2318 Central Avenue",94501,6,Alameda,CA,41860,488,-122.243566,37.764203,1/1/19
672000,,Associate,Associate,Public,Far West,,,1254,7806,,1078,8521,,0.074,,0.0068,College of Alameda,"Alameda, CA - 555 Ralph Appezzato Memorial Pky",94501,6,Alameda,CA,41860,488,-122.279303,37.781017,1/1/19
111100,,Associate,Associate,Public,Far West,,,1352,6784,,659,8493,,0.131,,0.0135,Allan Hancock College,"Santa Maria, CA - 800 South College Drive",93454-6399,6,Santa Maria,CA,42200,-2,-120.421144,34.943716,1/1/19
746501,,Associate,Associate,Private Non-Profit,Far West,0.7892,,35160,35160,,26205,8933,,0.099,,0.5107,American Academy of Dramatic Arts-Los Angeles,"Los Angeles, CA - 1336 North La Brea Avenue",90028,6,Los Angeles,CA,31080,348,-118.343701,34.095378,1/1/19
112000,,Graduate,Graduate,Private Non-Profit,Far West,,,,,,9305,5493,,0.047,,,American Baptist Seminary of the West,"Berkeley, CA - 2606 Dwight Way",94704-3029,6,Berkeley,CA,41860,488,-122.256149,37.865252,1/1/19
2222000,,Graduate,Graduate,Private Non-Profit,Far West,,,,,,35423,8047,,0.017,,,American Film Institute Conservatory,"Los Angeles, CA - 2021 N Western Ave",90027-1625,6,Los Angeles,CA,31080,348,-118.310018,34.10767,1/1/19
1307400,,Certificate,Certificate,Private For-Profit,Far West,,,,,17600,5869,,,0.057,,0.4792,American Beauty College,"West Covina, CA - 646 S. Sunset Ave",91790,6,West Covina,CA,31080,348,-117.936959,34.069367,1/1/19
2241800,,Certificate,Associate,Private For-Profit,Far West,,,,,18200,16044,5945,,0.036,,0.5711,American Career College-Los Angeles,"Los Angeles, CA - 4021 Rosewood Avenue",90004,6,Los Angeles,CA,31080,348,-118.292481,34.079323,1/1/19
2099200,,Certificate,Graduate,Private Non-Profit,Far West,,,29560,29560,,27255,4665,,0.035,,0.0769,American Conservatory Theater,"San Francisco, CA - 30 Grant Ave",94108-5834,6,San Francisco,CA,41860,488,-122.40475,37.787343,1/1/19
123200,,Certificate,Associate,Public,Far West,,,1104,8712,,604,8443,,0.173,,0.03,American River College,"Sacramento, CA - 4700 College Oak Dr",95841-4286,6,Sacramento,CA,40900,472,-121.349672,38.65085,1/1/19
111300,,Associate,Associate,Public,Far West,,,1124,6500,,436,8808,,0.216,,0.1157,Antelope Valley College,"Lancaster, CA - 3041 West  Ave K",93536-5426,6,Lancaster,CA,31080,348,-118.186166,34.676207,1/1/19
111600,,Bachelor,Graduate,Private Non-Profit,Far West,0.6765,,43416,43416,,34648,7776,,0.048,,0.4843,Art Center College of Design,"Pasadena, CA - 1700 Lida St",91103,6,Pasadena,CA,31080,348,-118.185102,34.169031,1/1/19
902200,,Certificate,Certificate,Private For-Profit,Far West,,,,,17000,16074,,,0.169,,0.4877,Associated Technical College-Los Angeles,"Los Angeles, CA - 1670 Wilshire Blvd",90017-1604,6,Los Angeles,CA,31080,348,-118.272364,34.056102,1/1/19
2553500,,Certificate,Certificate,Private For-Profit,Far West,,,,,17000,13093,,,0.274,,0.5692,Associated Technical College-San Diego,"San Diego, CA - 707 Broadway-Ste 300",92101,6,San Diego,CA,41740,-2,-117.157988,32.715375,1/1/19
111700,,Bachelor,Graduate,Private Non-Profit,Far West,0.6851,,38880,38880,,19919,9160,,0.03,1147,0.5438,Azusa Pacific University,"Azusa, CA - 901 E Alosta",91702-7000,6,Azusa,CA,31080,348,-117.888375,34.130047,1/1/19
111800,,Certificate,Bachelor,Public,Far West,,,1325,7261,,514,10776,,0.151,,0.0155,Bakersfield College,"Bakersfield, CA - 1801 Panorama Dr",93305-1299,6,Bakersfield,CA,12540,-2,-118.973753,35.40911,1/1/19
111900,,Associate,Associate,Public,Far West,,,1104,6720,,412,9621,,,,0,Barstow Community College,"Barstow, CA - 2700 Barstow Road",92311,6,Barstow,CA,40140,348,-117.023412,34.870285,1/1/19
705000,,Certificate,Certificate,Private For-Profit,Far West,,,,,24070,12137,,,0.072,,0.5863,Bellus Academy-Chula Vista,"Chula Vista, CA - 970 Broadway, Suite 110",91911,6,Chula Vista,CA,41740,-2,-117.083738,32.614773,1/1/19
3266300,,Bachelor,Graduate,Private Non-Profit,Far West,,,8095,8095,,6413,,,0.081,,0.2761,Bethesda University,"Anaheim, CA - 730 N. Euclid St",92801,6,Anaheim,CA,31080,348,-117.941323,33.842295,1/1/19
112200,,Bachelor,Graduate,Private Non-Profit,Far West,0.7347,,40488,40488,,22560,9348,,0.02,1170,0.5925,Biola University,"La Mirada, CA - 13800 Biola Ave",90639-0001,6,La Mirada,CA,31080,348,-118.014374,33.906203,1/1/19
2543400,,Certificate,Certificate,Private For-Profit,Far West,,,,,16295,10058,,,0.026,,0.7622,Brownson Technical School,"Anaheim, CA - 1110 Technology Cir Ste D",92805,6,Anaheim,CA,31080,348,-117.905774,33.819032,1/1/19
716400,,Associate,Bachelor,Private For-Profit,Southwest,,,11025,11025,,15165,4967,,0.124,,0.737,Bryan University,"Tempe, AZ - 350 W Washington St",85281,4,Tempe,AZ,38060,429,-111.944197,33.437779,1/1/19
807300,,Associate,Associate,Public,Far West,,,1368,6984,,994,8846,,0.179,,0.0622,Butte College,"Oroville, CA - 3536 Butte Campus Drive",95965-8399,6,Oroville,CA,17020,-2,-121.644831,39.649782,1/1/19
1215400,,Bachelor,Graduate,Private Non-Profit,Far West,,,,,,25180,8314,,0.034,,0.8,California Institute of Integral Studies,"San Francisco, CA - 1453 Mission Street",94103,6,San Francisco,CA,41860,488,-122.416102,37.774924,1/1/19
112400,,Associate,Associate,Public,Far West,,,1270,7462,,1318,8082,,0.177,,0.0172,Cabrillo College,"Aptos, CA - 6500 Soquel Dr",95003,6,Aptos,CA,42100,488,-121.924797,36.989448,1/1/19
112500,,Bachelor,Graduate,Private Non-Profit,Far West,0.7955,,33478,33478,,18673,9674,,0.045,1103,0.6968,California Baptist University,"Riverside, CA - 8432 Magnolia Ave",92504-3297,6,Riverside,CA,40140,348,-117.425619,33.929321,1/1/19
112700,,Bachelor,Graduate,Private Non-Profit,Far West,0.8818,,49138,49138,,30596,9662,,0.029,,0.4845,California College of the Arts,"San Francisco, CA - 1111 Eighth Street",94107-2247,6,San Francisco,CA,41860,488,-122.399451,37.767485,1/1/19
394700,,Graduate,Graduate,Public,Far West,,,,,,22938,17286,,0.01,,,University of California-Hastings College of Law,"San Francisco, CA - 200 McAllister Street",94102-4978,6,San Francisco,CA,41860,488,-122.4157,37.781137,1/1/19
113100,,Bachelor,Graduate,Private Non-Profit,Far West,0.0662,,52362,52362,,19078,19993,,0,1566,0.0468,California Institute of Technology,"Pasadena, CA - 1200 E California Blvd",91125,6,Pasadena,CA,31080,348,-118.125878,34.137349,1/1/19
113300,,Bachelor,Graduate,Private Non-Profit,Far West,0.7147,,42692,42692,,19499,9974,,0.03,1163,0.5461,California Lutheran University,"Thousand Oaks, CA - 60 W Olsen Rd",91360-2787,6,Thousand Oaks,CA,37100,348,-118.878924,34.224566,1/1/19
114300,,Bachelor,Graduate,Public,Far West,0.3017,,9816,21696,,9068,10335,,0.009,1339,0.304,California Polytechnic State University-San Luis Obispo,"San Luis Obispo, CA - 1 Grand Ave.",93407,6,San Luis Obispo,CA,42020,-2,-120.657311,35.299513,1/1/19
1111700,,Certificate,Graduate,Private For-Profit,Far West,1,,14600,14600,,18708,8689,,0.03,,0.0779,Alliant International University-San Diego,"San Diego, CA - 10455 Pomerado Road",92131,6,San Diego,CA,41740,-2,-117.094398,32.897056,1/1/19
799300,,Bachelor,Graduate,Public,Far West,0.6051,,7309,19189,,3321,9585,,0.067,,0.3422,California State University-Bakersfield,"Bakersfield, CA - 9001 Stockdale Hwy",93311-1099,6,Bakersfield,CA,12540,-2,-119.104711,35.350005,1/1/19
115700,,Bachelor,Graduate,Public,Far West,0.8582,,7072,18952,,4680,9475,,0.044,,0.3542,California State University-Stanislaus,"Turlock, CA - One University Circle",95382-0299,6,Turlock,CA,33700,488,-120.852511,37.52577,1/1/19
114200,,Bachelor,Graduate,Public,Far West,0.5483,,6922,18802,,3622,9779,,0.057,991,0.3513,California State University-San Bernardino,"San Bernardino, CA - 5500 University Parkway",92407-2393,6,San Bernardino,CA,40140,348,-117.323801,34.182622,1/1/19
114400,,Bachelor,Graduate,Public,Far West,0.5515,,7353,19233,,4699,10587,,0.029,1143,0.3205,California State Polytechnic University-Pomona,"Pomona, CA - 3801 West Temple Avenue",91768,6,Pomona,CA,31080,348,-117.821476,34.057912,1/1/19
114600,,Bachelor,Graduate,Public,Far West,0.6526,,7608,19488,,4242,9723,,0.051,1092,0.4528,California State University-Chico,"Chico, CA - First and Normal Sts",95929-0150,6,Chico,CA,17020,-2,-121.844859,39.729712,1/1/19
114100,,Bachelor,Graduate,Public,Far West,0.6394,,6942,18822,,3854,9752,,0.057,,0.3061,California State University-Dominguez Hills,"Carson, CA - 1000 E Victoria St",90747-0005,6,Carson,CA,31080,348,-118.255917,33.864766,1/1/19
114700,,Bachelor,Graduate,Public,Far West,0.5753,,6587,18467,,3735,9393,,0.05,1019,0.3029,California State University-Fresno,"Fresno, CA - 5241 N Maple Ave",93740,6,Fresno,CA,23420,260,-119.744569,36.811154,1/1/19
113700,,Bachelor,Graduate,Public,Far West,0.4341,,6886,18766,,5172,10201,,0.026,1124,0.285,California State University-Fullerton,"Fullerton, CA - 800 N State College Blvd",92831-3599,6,Fullerton,CA,31080,348,-117.885446,33.881506,1/1/19
113800,,Bachelor,Graduate,Public,Far West,0.716,,6983,18863,,5794,10210,,0.054,,0.3254,California State University-East Bay,"Hayward, CA - 25800 Carlos Bee Blvd",94542,6,Hayward,CA,41860,488,-122.054135,37.657694,1/1/19
113900,,Bachelor,Graduate,Public,Far West,0.3121,,6798,18678,,4721,10192,,0.023,1146,0.323,California State University-Long Beach,"Long Beach, CA - 1250 Bellflower Blvd",90840-0115,6,Long Beach,CA,31080,348,-118.11204,33.782818,1/1/19
114000,,Bachelor,Graduate,Public,Far West,0.4152,,6749,18629,,3656,9827,,0.043,978,0.2927,California State University-Los Angeles,"Los Angeles, CA - 5151 State University Dr",90032-8506,6,Los Angeles,CA,31080,348,-118.168965,34.066927,1/1/19
115300,,Bachelor,Graduate,Public,Far West,0.5063,,6893,18773,,4673,10090,,0.037,1027,0.2958,California State University-Northridge,"Northridge, CA - 18111 Nordhoff St",91330,6,Northridge,CA,31080,348,-118.529319,34.240126,1/1/19
115000,,Bachelor,Graduate,Public,Far West,0.6386,,7310,19190,,4931,9804,,0.047,1030,0.3397,California State University-Sacramento,"Sacramento, CA - 6000 J St",95819-2694,6,Sacramento,CA,40900,472,-121.423549,38.559415,1/1/19
131200,,Bachelor,Graduate,Public,Far West,0.1484,,14184,43176,,22027,17125,,0.02,1448,0.218,University of California-Berkeley,"Berkeley, CA - 200 California Hall",94720,6,Berkeley,CA,41860,488,-122.260463,37.871918,1/1/19
131300,,Bachelor,Graduate,Public,Far West,0.4107,,14402,43394,,18270,14603,,0.016,1292,0.3359,University of California-Davis,"Davis, CA - One Shields Avenue",95616-8678,6,Davis,CA,40900,472,-121.749567,38.539667,1/1/19
131400,,Bachelor,Graduate,Public,Far West,0.2876,,13700,42692,,15954,15447,,0.017,1316,0.3464,University of California-Irvine,"Irvine, CA - 501 Aldrich Hall",92697,6,Irvine,CA,31080,348,-117.841248,33.648434,1/1/19
131500,,Bachelor,Graduate,Public,Far West,0.1404,,13226,42218,,18278,18392,,0.013,1423,0.3169,University of California-Los Angeles,"Los Angeles, CA - 405 Hilgard Ave",90095-1405,6,Los Angeles,CA,31080,348,-118.443901,34.068892,1/1/19
131600,,Bachelor,Graduate,Public,Far West,0.5057,,13827,42819,,12688,13408,,0.028,1229,0.475,University of California-Riverside,"Riverside, CA - 900 University Ave",92521,6,Riverside,CA,40140,348,-117.32741,33.97246,1/1/19
131700,,Bachelor,Graduate,Public,Far West,0.3006,,14167,43159,,17532,16373,,0.017,1372,0.3554,University of California-San Diego,"La Jolla, CA - 9500 Gilman Dr",92093,6,La Jolla,CA,41740,-2,-117.235866,32.877749,1/1/19
131900,,Graduate,Graduate,Public,Far West,,,,,,19137,15176,,0.004,,,University of California-San Francisco,"San Francisco, CA - 500 Parnassus Ave",94143-0244,6,San Francisco,CA,41860,488,-122.458489,37.763737,1/1/19
132000,,Bachelor,Graduate,Public,Far West,0.322,,14391,43383,,15451,15994,,0.023,1360,0.3452,University of California-Santa Barbara,"Santa Barbara, CA - 5221 Cheadle Hall",93106,6,Santa Barbara,CA,42200,-2,-119.846426,34.416297,1/1/19
132100,,Bachelor,Graduate,Public,Far West,0.4737,,13960,42952,,14448,14426,,0.037,1311,0.4232,University of California-Santa Cruz,"Santa Cruz, CA - 1156 High St",95064-1011,6,Santa Cruz,CA,42100,488,-122.058801,36.995584,1/1/19
2267600,,Bachelor,Graduate,Private For-Profit,Far West,,,,,,23445,6194,,0.043,,0.6364,Sofia University,"Palo Alto, CA - 1069 East Meadow Cr",94303,6,Palo Alto,CA,41940,488,-122.10866,37.430325,1/1/19
2065700,,Certificate,Certificate,Private For-Profit,Far West,,,,,16900,10808,,,0.026,,0.4885,California Beauty School,"Modesto, CA - 1115 15th St",95354,6,Modesto,CA,33700,488,-120.99689,37.645217,1/1/19
884400,,Bachelor,Bachelor,Private Non-Profit,Far West,1,,9570,9570,,7352,,,0.153,,0.5,California Christian College,"Fresno, CA - 5364 E. Belmont Avenue",93727,6,Fresno,CA,23420,260,-119.711123,36.749366,1/1/19
4127600,,NA,NA,Private For-Profit,Far West,,,4500,4500,,,,,,,,,"nan, nan - nan",,,,,,,,,1/1/19
1186500,,Certificate,Certificate,Private For-Profit,Far West,,,,,17995,6184,,,0.078,,0.3378,California Hair Design Academy,"La Mesa, CA - 8011 University Avenue, Suite A-2",91942-5055,6,La Mesa,CA,41740,-2,-117.024261,32.765221,1/1/19
113200,,Bachelor,Graduate,Private Non-Profit,Far West,0.2297,,49276,49276,,28168,8825,,0.05,,0.4735,California Institute of the Arts,"Valencia, CA - 24700 W McBean Pky",91355-2397,6,Valencia,CA,31080,348,-118.566837,34.39327,1/1/19
113400,,Bachelor,Graduate,Public,Far West,0.6652,,7056,18936,,7631,9824,,0.06,,0.5057,California State University Maritime Academy,"Vallejo, CA - 200 Maritime Academy Dr",94590-8181,6,Vallejo,CA,46700,488,-122.231551,38.069061,1/1/19
1310300,,Graduate,Graduate,Private Non-Profit,Far West,,,,,,27705,11506,,0.007,,,California Western School of Law,"San Diego, CA - 225 Cedar St",92101-3046,6,San Diego,CA,41740,-2,-117.162416,32.722192,1/1/19
697300,,Associate,Associate,Public,Far West,,,1360,7744,,1456,10453,,0.245,,0.0094,Canada College,"Redwood City, CA - 4200 Farm Hill Blvd.",94061-1099,6,Redwood City,CA,41860,488,-122.265398,37.44877,1/1/19
890300,,Associate,Associate,Public,Far West,,,1156,7612,,1045,10205,,0.116,,0.0177,College of the Canyons,"Santa Clarita, CA - 26455 Rockwell Canyon Rd",91355-1899,6,Santa Clarita,CA,31080,348,-118.568698,34.403993,1/1/19
2125000,,Certificate,Certificate,Private For-Profit,Far West,,,,,17725,11640,,,0.017,,0.5922,Career Academy of Beauty,"Garden Grove, CA - 12471 Valley View",92845,6,Garden Grove,CA,31080,348,-118.031697,33.781018,1/1/19
673100,,Associate,Associate,Private Non-Profit,Far West,0.913,,,,35772,9351,6361,,0.029,,0.7308,Casa Loma College-Van Nuys,"Van Nuys, CA - 6725 Kester Ave",91405,6,Van Nuys,CA,31080,348,-118.457781,34.192829,1/1/19
2332809,,Certificate,Certificate,Private Non-Profit,Far West,,,,,13182,10064,,,0.147,,0.3198,CET-San Diego,"San Diego, CA - 4153 Market Street",92102,6,San Diego,CA,41740,-2,-117.105328,32.711302,1/1/19
2332800,,Certificate,Certificate,Private Non-Profit,Far West,,,,,15375,10802,,,0.147,,0.4202,CET-San Jose,"San Jose, CA - 701 Vine St",95110,6,San Jose,CA,41940,488,-121.88698,37.322723,1/1/19
2332810,,Certificate,Certificate,Private Non-Profit,Far West,,,,,13182,11140,,,0.147,,0.149,CET-El Centro,"El Centro, CA - 294 S 3rd St",92243,6,El Centro,CA,20940,-2,-115.549079,32.790908,1/1/19
2332814,,Certificate,Certificate,Private Non-Profit,Far West,,,,,13182,11509,,,0.147,,0.4878,CET-Colton,"Colton, CA - 1099 N. Pepper Ave",92324,6,Colton,CA,40140,348,-117.353488,34.077381,1/1/19
2332819,,Certificate,Certificate,Private Non-Profit,Far West,,,,,11486,10398,,,0.147,,0.1594,CET-Watsonville,"Watsonville, CA - 10 Blanca Lane",95076,6,Watsonville,CA,42100,488,-121.767991,36.931833,1/1/19
2332813,,Certificate,Certificate,Private Non-Profit,Far West,,,,,12954,9272,,,0.147,,0.133,CET-Salinas,"Salinas, CA - 24 East Alvin Drive",93906,6,Salinas,CA,41500,-2,-121.65236,36.707333,1/1/19
116100,,Certificate,Associate,Public,Far West,,,1346,8710,,728,10471,,0.112,,0.0281,Cerritos College,"Norwalk, CA - 11110 Alondra Blvd",90650-6298,6,Norwalk,CA,31080,348,-118.097337,33.886874,1/1/19
1011100,,Associate,Associate,Public,Far West,,,1290,7254,,629,13354,,0.058,,0,Cerro Coso Community College,"Ridgecrest, CA - 3000 College Heights Blvd",93555-9571,6,Ridgecrest,CA,12540,-2,-117.66767,35.567525,1/1/19
116200,,Associate,Associate,Public,Far West,,,1142,7742,,1189,9891,,0.145,,0.0092,Chabot College,"Hayward, CA - 25555 Hesperian Blvd",94545,6,Hayward,CA,41860,488,-122.105636,37.642458,1/1/19
116300,,Associate,Associate,Public,Far West,,,1172,7604,,833,9515,,0.101,,0,Chaffey College,"Rancho Cucamonga, CA - 5885 Haven Ave",91737-3002,6,Rancho Cucamonga,CA,40140,348,-117.573932,34.147663,1/1/19
116400,,Bachelor,Graduate,Private Non-Profit,Far West,0.5356,,52724,52724,,30672,11826,,0.018,1288,0.4943,Chapman University,"Orange, CA - One University Dr.",92866,6,Orange,CA,31080,348,-117.852518,33.79302,1/1/19
1036500,,Associate,Graduate,Private Non-Profit,Far West,0.3727,,13972,13972,,32640,8771,,0.014,982,0.6087,Charles R Drew University of Medicine and Science,"Los Angeles, CA - 1731 E 120th St",90059,6,Los Angeles,CA,31080,348,-118.242791,33.925658,1/1/19
2070500,,Bachelor,Graduate,Private Non-Profit,Far West,0.6178,,35400,35400,,15656,7215,,0.034,1142,0.6033,Concordia University-Irvine,"Irvine, CA - 1530 Concordia West",92612-3203,6,Irvine,CA,31080,348,-117.812305,33.653665,1/1/19
1203100,,Bachelor,Graduate,Private Non-Profit,Far West,0.6013,,31404,31404,,19997,6748,,0.099,1055,0.5578,San Diego Christian College,"Santee, CA - 200 Riverview Parkway",92071,6,Santee,CA,41740,-2,-116.978112,32.842404,1/1/19
116500,,Graduate,Graduate,Private Non-Profit,Far West,,,,,,8133,6872,,0,,,Church Divinity School of the Pacific,"Berkeley, CA - 2451 Ridge Road",94709-1211,6,Berkeley,CA,41860,488,-122.261122,37.876184,1/1/19
116600,,Associate,Associate,Public,Far West,,,1190,7646,,1178,9691,,0.1,,0.017,Citrus College,"Glendora, CA - 1000 W Foothill Blvd",91741-1899,6,Glendora,CA,31080,348,-117.885266,34.135487,1/1/19
2178700,,Certificate,Certificate,Private For-Profit,Far West,,,,,15050,4547,,,,,0.3933,Citrus Heights Beauty College,"Citrus Heights, CA - 7518 Baird Way",95610-1410,6,Citrus Heights,CA,40900,472,-121.289529,38.712951,1/1/19
450200,,Certificate,Associate,Public,Far West,,,1696,10372,,1475,9737,,0.169,,0.0065,City College of San Francisco,"San Francisco, CA - 50 Frida Kahlo Drive",94112-1898,6,San Francisco,CA,41860,488,-122.451155,37.725953,1/1/19
116900,,Graduate,Graduate,Private Non-Profit,Far West,,,,,,36927,13883,,0.03,,,Claremont Graduate University,"Claremont, CA - 150 E Tenth St",91711-6160,6,Claremont,CA,31080,348,-117.713703,34.103585,1/1/19
117000,,Bachelor,Graduate,Private Non-Profit,Far West,0.0931,,54405,54405,,35861,14628,,0.02,1446,0.2212,Claremont McKenna College,"Claremont, CA - 500 E 9th St",91711-6400,6,Claremont,CA,31080,348,-117.711188,34.102154,1/1/19
2497300,,Certificate,Certificate,Private For-Profit,Far West,,,,,12559,9208,,,0.131,,0.7045,Milan Institute-Visalia,"Visalia, CA - 6500 S. Mooney Blvd.",93277,6,Visalia,CA,47300,-2,-119.312151,36.27164,1/1/19
2309500,,Certificate,Certificate,Public,Far West,,,,,12000,2495,,,,,0,Clovis Adult Education,"Clovis, CA - 1452 David E Cook Way",93611,6,Clovis,CA,23420,260,-119.690369,36.834459,1/1/19
2063500,,Associate,Associate,Public,Far West,,,1150,6526,,998,10579,,0.216,,0.028,Coastline Community College,"Fountain Valley, CA - 11460 Warner Ave.",92708-2597,6,Fountain Valley,CA,31080,348,-117.929143,33.715634,1/1/19
117700,,Bachelor,Bachelor,Private For-Profit,Far West,0.5787,,20056,20056,,22207,7404,,0.076,,0.6733,Cogswell College,"San Jose, CA - 191 Baypointe Parkway",95134,6,San Jose,CA,41940,488,-121.94087,37.414049,1/1/19
3577300,,Certificate,Certificate,Private For-Profit,Far West,,,,,20000,11307,,,0.05,,0.6174,Coba Academy,"Anaheim, CA - 663 N. Euclid Street",92801,6,Anaheim,CA,31080,348,-117.943108,33.841141,1/1/19
2482700,,Graduate,Graduate,Private Non-Profit,Far West,,,,,,47040,10741,,0.003,,,Western University of Health Sciences,"Pomona, CA - 309 E 2nd St",91766-1854,6,Pomona,CA,31080,348,-117.747732,34.058092,1/1/19
770700,,Associate,Associate,Public,Far West,,,1166,7358,,654,8902,,,,0,Columbia College,"Sonora, CA - 11600 Columbia College Dr",95370,6,Sonora,CA,43760,-2,-120.388385,38.030367,1/1/19
2110200,,Bachelor,Bachelor,Private Non-Profit,Far West,,,24495,24495,,20553,5833,,0.132,,0.6858,Columbia College Hollywood,"Tarzana, CA - 18618 Oxnard St",91356-1411,6,Tarzana,CA,31080,348,-118.538793,34.17972,1/1/19
119701,,Associate,Associate,Public,Far West,,,1142,6326,,372,8965,,0.04,,0,,"nan, nan - nan",,,,,,,,,1/1/19
119000,,Associate,Associate,Public,Far West,,,1312,8564,,757,9078,,0.146,,0.0196,Contra Costa College,"San Pablo, CA - 2600 Mission Bell Dr",94806-3195,6,San Pablo,CA,41860,488,-122.337377,37.969381,1/1/19
753600,,Associate,Associate,Public,Far West,,,1104,8712,,630,8376,,0.186,,0.0312,Cosumnes River College,"Sacramento, CA - 8401 Center Parkway",95823-5799,6,Sacramento,CA,40900,472,-121.423108,38.45295,1/1/19
927200,,Associate,Associate,Public,Far West,,,1144,8104,,616,9425,,0.285,,0,Crafton Hills College,"Yucaipa, CA - 11711 Sand Canyon Road",92339-1799,6,Yucaipa,CA,40140,348,-117.101173,34.039178,1/1/19
119200,,Associate,Associate,Public,Far West,,,1338,8702,,1047,8946,,0.065,,0.0407,Cuesta College,"San Luis Obispo, CA - Highway 1",93403-8106,6,San Luis Obispo,CA,42020,-2,-120.742235,35.331276,1/1/19
2111300,,Associate,Associate,Public,Far West,,,1386,7196,,484,7339,,0.127,,0.0056,Cuyamaca College,"El Cajon, CA - 900 Rancho San Diego Pky",92019,6,El Cajon,CA,41740,-2,-116.943507,32.744954,1/1/19
119300,,Associate,Associate,Public,Far West,,,1142,6158,,919,11603,,0.112,,0.0172,Cypress College,"Cypress, CA - 9200 Valley View",90630-5897,6,Cypress,CA,31080,348,-118.025143,33.82833,1/1/19
448000,,Associate,Associate,Public,Far West,,,1561,7501,,1900,9179,,0.164,,0.0311,De Anza College,"Cupertino, CA - 21250 Stevens Creek Blvd.",95014,6,Cupertino,CA,41940,488,-122.045558,37.320788,1/1/19
3964400,,Certificate,Certificate,Private For-Profit,Far West,,,,,16000,4259,,,0.243,,0.5336,International School of Beauty Inc,"Palm Desert, CA - 72261 Hwy 111 Ste 121-B",92260-2740,6,Palm Desert,CA,40140,348,-116.403928,33.729555,1/1/19
3025600,,Certificate,Graduate,Private Non-Profit,Far West,,,13350,13350,,12215,2228,,0.057,,0.15,Dell'Arte International School of Physical Theatre,"Blue Lake, CA - 131 H Street",95525-0816,6,Blue Lake,CA,21700,-2,-123.988808,40.880924,1/1/19
118200,,Associate,Associate,Public,Far West,,,1335,8615,,722,9826,,0.204,,0,College of the Desert,"Palm Desert, CA - 43-500 Monterey Ave",92260,6,Palm Desert,CA,40140,348,-116.388271,33.732108,1/1/19
2298000,,Bachelor,Bachelor,Private For-Profit,Far West,0.5882,,23860,23860,,22770,5278,,0.02,,0.6111,Design Institute of San Diego,"San Diego, CA - 8555 Commerce Ave",92121,6,San Diego,CA,41740,-2,-117.167374,32.880926,1/1/19
119100,,Associate,Associate,Public,Far West,,,1312,8564,,1939,9234,,0.083,,0.0113,Diablo Valley College,"Pleasant Hill, CA - 321 Golf Club Rd",94523,6,Pleasant Hill,CA,41860,488,-122.073142,37.968516,1/1/19
119600,,Bachelor,Graduate,Private Non-Profit,Far West,0.8717,,45850,45850,,24774,8662,,0.04,1126,0.6452,Dominican University of California,"San Rafael, CA - 50 Acacia Ave",94901-2298,6,San Rafael,CA,41860,488,-122.512051,37.981279,1/1/19
129600,,Graduate,Graduate,Private Non-Profit,Far West,,,,,,12238,3117,,0.047,,,Dominican School of Philosophy & Theology,"Berkeley, CA - 2301 Vine Street",94708-1816,6,Berkeley,CA,41860,488,-122.264612,37.881099,1/1/19
2226000,,Certificate,Associate,Public,Far West,,,1220,7746,,782,9499,,0.11,,0.0064,East Los Angeles College,"Monterey Park, CA - 1301 Avenida Cesar Chavez",91754-6099,6,Monterey Park,CA,31080,348,-118.148785,34.040531,1/1/19
119700,,Associate,Associate,Public,Far West,,,1144,6520,,1106,10926,,0.04,,0,El Camino Community College District,"Torrance, CA - 16007 Crenshaw Blvd",90506,6,Torrance,CA,31080,348,-118.329913,33.885229,1/1/19
2091200,,Certificate,Certificate,Private For-Profit,Far West,,,,,17600,10502,,,0.163,,0.6786,Elegance International,"Hollywood, CA - 6767 Sunset Blvd",90028,6,Hollywood,CA,31080,348,-118.338111,34.098445,1/1/19
2609000,,Graduate,Graduate,Private For-Profit,Far West,,,,,,11063,,,0.015,,,Emperor's College of Traditional Oriental Medicine,"Santa Monica, CA - 1807 Wilshire Blvd, Ste #200",90403,6,Santa Monica,CA,31080,348,-118.485119,34.030438,1/1/19
903200,,Certificate,Graduate,Private For-Profit,Far West,,,,,19800,10209,4586,,0.041,,0.5609,Empire College,"Santa Rosa, CA - 3035 Cleveland Ave",95403-2126,6,Santa Rosa,CA,42220,488,-122.729337,38.468052,1/1/19
1245200,,Associate,Associate,Public,Far West,,,1358,7994,,874,11971,,0.089,,0.0065,Evergreen Valley College,"San Jose, CA - 3095 Yerba Buena Rd",95135-1598,6,San Jose,CA,41940,488,-121.76561,37.30167,1/1/19
1245200,,Associate,Associate,Public,Far West,,,1358,7994,,874,11971,,0.089,,0.0065,San Jose-Evergreen Community College District,"San Jose, CA - 40 South Market Street",95113-1599,6,San Jose,CA,41940,488,-121.89118,37.334851,1/1/19
1111200,,Associate,Bachelor,Private For-Profit,Far West,0.5193,,32293,32293,,31097,2678,,0.065,,0.5395,FIDM-Fashion Institute of Design & Merchandising-Los Angeles,"Los Angeles, CA - 919 S Grand Ave",90015-1421,6,Los Angeles,CA,31080,348,-118.25993,34.044209,1/1/19
1111202,,Associate,Bachelor,Private For-Profit,Far West,0.4615,,32293,32293,,29710,2346,,0.065,,0.6237,FIDM-Fashion Institute of Design & Merchandising-San Francisco,"San Francisco, CA - 55 Stockton St",94108-5805,6,San Francisco,CA,41860,488,-122.406651,37.786353,1/1/19
1111203,,Associate,Bachelor,Private For-Profit,Far West,0.6667,,32293,32293,,37950,,,0.065,,0.6197,FIDM-Fashion Institute of Design & Merchandising-Orange County,"Irvine, CA - 17590 Gillette Avenue",92614-5610,6,Irvine,CA,31080,348,-117.852254,33.691963,1/1/19
859700,,Associate,Bachelor,Public,Far West,,,1461,8511,,700,8177,,0.117,,0.0946,Feather River Community College District,"Quincy, CA - 570 Golden Eagle Ave",95971-9124,6,Quincy,CA,-2,-2,-120.973067,39.953101,1/1/19
725300,,Certificate,Certificate,Private For-Profit,Far West,,,,,17200,6623,,,0.098,,0.5961,Federico Beauty Institute,"Sacramento, CA - 1515 Sports Drive    Ste 100",95834,6,Sacramento,CA,40900,472,-121.497761,38.64883,1/1/19
2096100,,Graduate,Graduate,Private Non-Profit,Far West,,,,,,22655,6801,,0.049,,,Fielding Graduate University,"Santa Barbara, CA - 2020 De La Vina St",93105-3538,6,Santa Barbara,CA,42200,-2,-119.717161,34.42941,1/1/19
3131300,,Graduate,Graduate,Private For-Profit,Far West,,,,,,10906,4348,,0.032,,,Five Branches University,"Santa Cruz, CA - 200 7th Avenue",95062,6,Santa Cruz,CA,42100,488,-121.998245,36.964348,1/1/19
720900,,Certificate,Certificate,Private For-Profit,Far West,,,,,11200,4186,,,0,,0.0957,Redondo Beach Beauty College,"Redondo Beach, CA - 2205 West Artesia Boulevard",90278-3111,6,Redondo Beach,CA,31080,348,-118.372137,33.873098,1/1/19
119900,,Certificate,Bachelor,Public,Far West,,,1563,7503,,2286,9294,,0.149,,0.0222,Foothill College,"Los Altos Hills, CA - 12345 El Monte Rd",94022,6,Los Altos Hills,CA,41940,488,-122.127964,37.361655,1/1/19
1179200,,Graduate,Graduate,Private Non-Profit,Far West,,,,,,11001,7353,,0.047,,,Franciscan School of Theology,"Oceanside, CA - 4050 Mission Avenue",92057,6,Oceanside,CA,41740,-2,-117.320066,33.232416,1/1/19
2230900,,Certificate,Certificate,Private For-Profit,Far West,,,,,14500,9206,,,,,0,Fredrick and Charles Beauty College,"Eureka, CA - 831 F St",95501,6,Eureka,CA,21700,-2,-124.164986,40.798885,1/1/19
130700,,Associate,Associate,Public,Far West,,,1304,7496,,447,9430,,0.162,,0.0106,Fresno City College,"Fresno, CA - 1101 E. University Ave",93741,6,Fresno,CA,23420,260,-119.796096,36.768164,1/1/19
125300,,Bachelor,Graduate,Private Non-Profit,Far West,0.8511,,32458,32458,,16592,7166,,0.053,1053,0.718,Fresno Pacific University,"Fresno, CA - 1717 S Chestnut Ave",93702-4709,6,Fresno,CA,23420,260,-119.735199,36.726831,1/1/19
120000,,Graduate,Graduate,Private Non-Profit,Far West,,,,,,11578,7722,,0.024,,,Fuller Theological Seminary,"Pasadena, CA - 135 N Oakland Ave",91182,6,Pasadena,CA,31080,348,-118.140261,34.14778,1/1/19
120100,,Associate,Associate,Public,Far West,,,1138,6010,,915,11454,,0.14,,0.0439,Fullerton College,"Fullerton, CA - 321 E Chapman Avenue",92832-2095,6,Fullerton,CA,31080,348,-117.918255,33.875514,1/1/19
120200,,Certificate,Associate,Public,Far West,,,1166,6782,,774,10119,,0.115,,0.0043,Gavilan College,"Gilroy, CA - 5055 Santa Teresa Blvd",95020,6,Gilroy,CA,41940,488,-121.569842,36.972627,1/1/19
2231900,,Certificate,Certificate,Private Non-Profit,Far West,,,,,21000,26013,,,0.1,,0.1026,Gemological Institute of America-Carlsbad,"Carlsbad, CA - 5345 Armada Dr",92008,6,Carlsbad,CA,41740,-2,-117.318765,33.131313,1/1/19
120300,,Associate,Associate,Public,Far West,,,1175,6719,,843,9555,,0.037,,0.0199,Glendale Community College,"Glendale, CA - 1500 N Verdugo Rd",91208-2894,6,Glendale,CA,31080,348,-118.227666,34.16745,1/1/19
2338500,,Certificate,Associate,Private For-Profit,Far West,,,,,72355,12574,3949,,0.02,,0.7803,Glendale Career College,"Glendale, CA - 240 North Brand Boulevard Lower Level",91203,6,Glendale,CA,31080,348,-118.254719,34.149771,1/1/19
120500,,Bachelor,Graduate,Private Non-Profit,Far West,,,,,,22657,10287,,0.042,,0.3473,Golden Gate University-San Francisco,"San Francisco, CA - 536 Mission Street",94105-2968,6,San Francisco,CA,41860,488,-122.398969,37.789374,1/1/19
120600,,Associate,Associate,Public,Far West,,,1178,7682,,1361,10852,,0.093,,0.0186,Golden West College,"Huntington Beach, CA - 15744 Goldenwest St.",92647-2710,6,Huntington Beach,CA,31080,348,-118.002568,33.732531,1/1/19
120700,,Graduate,Graduate,Private Non-Profit,Far West,,,,,,7423,8198,,0.05,,,Graduate Theological Union,"Berkeley, CA - 2400 Ridge Rd",94709,6,Berkeley,CA,41860,488,-122.261847,37.87554,1/1/19
120800,,Associate,Associate,Public,Far West,,,1386,7196,,365,7763,,0.144,,0.0189,Grossmont College,"El Cajon, CA - 8800 Grossmont College Dr",92020-1799,6,El Cajon,CA,41740,-2,-117.006277,32.815246,1/1/19
2211000,,Certificate,Certificate,Private For-Profit,Far West,,,,,20000,7306,,,0.189,,0.6311,Salon Success Academy-Riverside,"Riverside, CA - 6780 Indiana Ave. Ste #200",92506,6,Riverside,CA,40140,348,-117.391024,33.943149,1/1/19
120900,,Associate,Associate,Public,Far West,,,1420,8870,,400,7785,,0.188,,0,Hartnell College,"Salinas, CA - 411 Central Avenue",93901,6,Salinas,CA,41500,-2,-121.666054,36.675091,1/1/19
117100,,Bachelor,Bachelor,Private Non-Profit,Far West,0.1448,,56620,56620,,31809,13671,,0,1531,0.3856,Harvey Mudd College,"Claremont, CA - 301 Platt Blvd.",91711,6,Claremont,CA,31080,348,-117.709837,34.106515,1/1/19
2285100,,Certificate,Certificate,Private For-Profit,Far West,,,,,12495,5036,,,,,0,Hilltop Beauty School,"Daly City, CA - 6317 Mission St",94014,6,Daly City,CA,41860,488,-122.461467,37.705502,1/1/19
118300,,Bachelor,Graduate,Private Non-Profit,Far West,0.7004,,39316,39316,,16036,8046,,0.073,849,0.8071,Holy Names University,"Oakland, CA - 3500 Mountain Blvd",94619-1699,6,Oakland,CA,41860,488,-122.187804,37.802276,1/1/19
3126800,,Graduate,Graduate,Private For-Profit,Far West,,,,,,28195,7441,,0.034,,,Pacifica Graduate Institute,"Carpinteria, CA - 249 Lambert Rd",93013,6,Carpinteria,CA,42200,-2,-119.580414,34.420881,1/1/19
114900,,Bachelor,Graduate,Public,Far West,0.7679,,7675,19555,,4192,9602,,0.074,1074,0.5126,Humboldt State University,"Arcata, CA - 1 Harpst Street",95521-8299,6,Arcata,CA,21700,-2,-124.078293,40.877481,1/1/19
121200,,Bachelor,Graduate,Private Non-Profit,Far West,,,14292,14292,,15807,6775,,0.084,,0.6614,Humphreys University-Stockton and Modesto Campuses,"Stockton, CA - 6650 Inglewood Ave",95207-3896,6,Stockton,CA,44700,488,-121.316918,38.011489,1/1/19
121400,,Associate,Associate,Public,Far West,,,1125,6093,,567,8664,,,,0,Imperial Valley College,"Imperial, CA - 380 E. Aten Road",92251-0158,6,Imperial,CA,20940,-2,-115.503563,32.827209,1/1/19
2128300,,Certificate,Associate,Private For-Profit,Far West,,,,,14348,7759,5368,,0.191,,0.4403,Institute for Business and Technology,"Santa Clara, CA - 2400 Walsh Avenue",95051-1303,6,Santa Clara,CA,41940,488,-121.969541,37.368642,1/1/19
2520300,,Associate,Bachelor,Private For-Profit,Far West,,,18250,18250,,21025,7646,,0.055,,0.524,Interior Designers Institute,"Newport Beach, CA - 1061 Camelback Street",92660,6,Newport Beach,CA,31080,348,-117.865722,33.641393,1/1/19
2255400,,Certificate,Certificate,Private For-Profit,Far West,,,,,18900,11481,,,0.051,,0.5774,Toni & Guy Hairdressing Academy-Santa Monica,"Santa Monica, CA - 1358 5th St",90401,6,Santa Monica,CA,31080,348,-118.494755,34.017276,1/1/19
2539500,,Certificate,Associate,Public,Far West,,,1142,8054,,1668,10222,,0.083,,0.0102,Irvine Valley College,"Irvine, CA - 5500 Irvine Center Drive",92618-0301,6,Irvine,CA,31080,348,-117.777539,33.675381,1/1/19
1202600,,Certificate,Certificate,Private For-Profit,Far West,,,,,13989,13402,,,0.009,,0.5613,Bellus Academy-El Cajon,"El Cajon, CA - 1073 E Main St",92021,6,El Cajon,CA,41740,-2,-116.94627,32.794072,1/1/19
448400,,Bachelor,Graduate,Private Non-Profit,Far West,,,8500,8500,,21881,5923,,0.036,,0.4583,John F. Kennedy University,"Pleasant Hill, CA - 100 Ellinwood Way",94523-4817,6,Pleasant Hill,CA,41860,488,-122.054761,37.956616,1/1/19
274100,,Bachelor,Graduate,Private Non-Profit,Far West,0.96,,31946,31946,,15293,7904,,0.08,,0.3443,American Jewish University,"Los Angeles, CA - 15600 Mulholland Dr",90077-1519,6,Los Angeles,CA,31080,348,-118.471706,34.128153,1/1/19
130800,,Certificate,Associate,Public,Far West,,,1304,7568,,506,9096,,0.183,,0.0097,Reedley College,"Reedley, CA - 995 N Reed Ave",93654,6,Reedley,CA,23420,260,-119.458555,36.605428,1/1/19
2270600,,Bachelor,Graduate,Private Non-Profit,Far West,0.9568,,15654,15654,,10917,6300,,0.071,1002,0.6904,Life Pacific University,"San Dimas, CA - 1100 W. Covina Blvd.",91773-3298,6,San Dimas,CA,31080,348,-117.829388,34.098705,1/1/19
121600,,Bachelor,Graduate,Private Non-Profit,Far West,0.5089,,43050,43050,,20508,9264,,0.04,1120,0.6204,University of La Verne,"La Verne, CA - 1950 Third St",91750-4401,6,La Verne,CA,31080,348,-117.773262,34.100855,1/1/19
2330500,,Bachelor,Graduate,Private Non-Profit,Far West,0.8093,,30700,30700,,20583,8957,,0.039,,0.577,Laguna College of Art and Design,"Laguna Beach, CA - 2222 Laguna Canyon Rd",92651,6,Laguna Beach,CA,31080,348,-117.772564,33.561448,1/1/19
1290700,,Associate,Associate,Public,Far West,,,1224,7932,,2376,6460,,0.1,,0,Lake Tahoe Community College,"South Lake Tahoe, CA - One College Drive",96150,6,South Lake Tahoe,CA,40900,472,-119.972574,38.926797,1/1/19
1301000,,Certificate,Certificate,Private For-Profit,Far West,,,,,16475,9744,,,0.084,,0.645,Lancaster Beauty School,"Lancaster, CA - 44646 N 10th St W",93534,6,Lancaster,CA,31080,348,-118.147547,34.694914,1/1/19
126600,,Associate,Associate,Public,Far West,,,1254,7806,,1073,9091,,0.279,,0.0154,Laney College,"Oakland, CA - 900 Fallon Sreet",94607,6,Oakland,CA,41860,488,-122.26283,37.797257,1/1/19
121700,,Associate,Associate,Public,Far West,,,1127,7319,,1048,8102,,0.216,,0.0173,Lassen Community College,"Susanville, CA - 478-200 Hwy 139",96130,6,Susanville,CA,45000,-2,-120.633271,40.432053,1/1/19
2228500,,Graduate,Graduate,Private Non-Profit,Far West,,,,,,32235,7588,,0.019,,,Life Chiropractic College West,"Hayward, CA - 25001 Industrial Blvd",94545-2800,6,Hayward,CA,41860,488,-122.117619,37.638099,1/1/19
697500,,Bachelor,Graduate,Private Non-Profit,Far West,,,11110,11110,,6531,5157,,0.029,,0.2832,Lincoln University,"Oakland, CA - 401 15th Street",94612-2801,6,Oakland,CA,41860,488,-122.269745,37.804788,1/1/19
3332300,,Bachelor,Graduate,Private Non-Profit,Far West,,,17540,17540,,9339,4120,,0.064,,0.4231,Southern California Seminary,"El Cajon, CA - 2075 E. Madison Avenue",92019-1108,6,El Cajon,CA,41740,-2,-116.905461,32.799614,1/1/19
121500,,Bachelor,Graduate,Private Non-Profit,Far West,0.4709,,32778,32778,,29673,8000,,0.05,1022,0.5869,La Sierra University,"Riverside, CA - 4500 Riverwalk Parkway",92505-8247,6,Riverside,CA,40140,348,-117.500054,33.910704,1/1/19
121800,,Bachelor,Graduate,Private Non-Profit,Far West,,,,,,35083,8360,,0.009,,0.623,Loma Linda University,"Loma Linda, CA - 11139 Anderson Street",92350,6,Loma Linda,CA,40140,348,-117.260605,34.051241,1/1/19
121900,,Associate,Associate,Public,Far West,,,1174,7750,,736,6944,,0.175,,0.021,Long Beach City College,"Long Beach, CA - 4901 E. Carson St.",90808-1706,6,Long Beach,CA,31080,348,-118.135633,33.833593,1/1/19
122900,,Certificate,Graduate,Private Non-Profit,Far West,,,7000,7000,,18865,7136,,0.039,,0.0778,Southern California University of Health Sciences,"Whittier, CA - 16200 East Amber Valley Drive",90604,6,Whittier,CA,31080,348,-117.983401,33.922966,1/1/19
122400,,Associate,Associate,Public,Far West,,,1220,7746,,1028,9308,,0.076,,0.0082,Los Angeles Harbor College,"Wilmington, CA - 1111 Figueroa Place",90744-2397,6,Wilmington,CA,31080,348,-118.28186,33.784201,1/1/19
122600,,Associate,Associate,Public,Far West,,,1220,7746,,866,9303,,0.132,,0.0354,Los Angeles Pierce College,"Woodland Hills, CA - 6201 Winnetka Ave",91371-0002,6,Woodland Hills,CA,31080,348,-118.575071,34.183949,1/1/19
704700,,Associate,Associate,Public,Far West,,,1220,7746,,481,9113,,0.17,,0.0333,Los Angeles Southwest College,"Los Angeles, CA - 1600 W. Imperial Hwy.",90047-4899,6,Los Angeles,CA,31080,348,-118.304674,33.929586,1/1/19
122700,,Certificate,Associate,Public,Far West,,,1220,7746,,600,9562,,0.219,,0.0261,Los Angeles Trade Technical College,"Los Angeles, CA - 400 W Washington Blvd",90015-4181,6,Los Angeles,CA,31080,348,-118.269447,34.031907,1/1/19
122800,,Associate,Associate,Public,Far West,,,1220,7746,,736,9402,,0.102,,0.0139,Los Angeles Valley College,"Valley Glen, CA - 5800 Fulton Avenue",91401-4096,6,Valley Glen,CA,31080,348,-118.421734,34.175165,1/1/19
122000,,Bachelor,Graduate,Private Non-Profit,Far West,0.7688,,25390,25390,,13486,8258,,0.016,1143,0.5223,The Master's University and Seminary,"Santa Clarita, CA - 21726 Placerita Canyon Road",91321-1200,6,Santa Clarita,CA,31080,348,-118.518193,34.381755,1/1/19
122300,,Certificate,Associate,Public,Far West,,,1220,7746,,844,8993,,0.141,,0.0312,Los Angeles City College,"Los Angeles, CA - 855 N Vermont Ave",90029,6,Los Angeles,CA,31080,348,-118.292169,34.087301,1/1/19
616500,,Associate,Associate,Public,Far West,,,,,,3906,11832,,0.023,,0.5962,Los Angeles County College of Nursing and Allied Health,"Los Angeles, CA - 1237 N. Mission Rd.",90033-1084,6,Los Angeles,CA,31080,348,-118.211852,34.062647,1/1/19
1255000,,Associate,Associate,Public,Far West,,,1220,7746,,600,8965,,0.123,,0.0141,Los Angeles Mission College,"Sylmar, CA - 13356 Eldridge Avenue",91342-3200,6,Sylmar,CA,31080,348,-118.4195,34.314668,1/1/19
1034000,,Associate,Associate,Public,Far West,,,1312,8564,,673,8850,,0.123,,0.0163,Los Medanos College,"Pittsburg, CA - 2700 East Leland Road",94565,6,Pittsburg,CA,41860,488,-121.860967,38.006474,1/1/19
1164900,,Bachelor,Graduate,Private Non-Profit,Far West,0.4713,,48522,48522,,33429,11733,,0.018,1321,0.3855,Loyola Marymount University,"Los Angeles, CA - One Lmu Drive",90045-2659,6,Los Angeles,CA,31080,348,-118.415744,33.97085,1/1/19
1186600,,Certificate,Certificate,Private For-Profit,Far West,,,,,17450,11292,,,0.058,,0.536,Lu Ross Academy,"Ventura, CA - 470 East Thompson Blvd",93001-2729,6,Ventura,CA,37100,348,-119.293952,34.278034,1/1/19
712800,,Certificate,Certificate,Private For-Profit,Far West,,,,,16075,8261,,,,,0.3577,,"nan, nan - nan",,,,,,,,,1/1/19
714200,,Certificate,Certificate,Private For-Profit,Far West,,,,,16075,7133,,,0.078,,0.5093,Lyle's College of  Beauty,"Fresno, CA - 6735 N First Ave Ste 112",93710,6,Fresno,CA,23420,260,-119.774167,36.836265,1/1/19
1324000,,Certificate,Certificate,Private For-Profit,Far West,1,,,,19713,10363,,,0.076,,0.4528,Lytles Redwood Empire Beauty College Inc,"Santa Rosa, CA - 186 Wikiup Dr",95403,6,Santa Rosa,CA,42220,488,-122.75777,38.508385,1/1/19
2546400,,Certificate,Certificate,Private For-Profit,Far West,,,,,9250,4784,,,,,1,MTI Business College Inc,"Stockton, CA - 6006 N. El Dorado Street",95207-4349,6,Stockton,CA,44700,488,-121.308445,38.007885,1/1/19
1291200,,Certificate,Associate,Private For-Profit,Far West,0.7857,,,,15300,11220,3391,,0.115,,0.7345,MTI College,"Sacramento, CA - 5221 Madison Avenue",95841-9817,6,Sacramento,CA,40900,472,-121.342568,38.661377,1/1/19
117800,,Associate,Associate,Public,Far West,,,1492,9712,,1612,10702,,0.212,,0.0115,College of Marin,"Kentfield, CA - 835 College Ave",94904-2590,6,Kentfield,CA,41860,488,-122.549149,37.954897,1/1/19
1047400,,Associate,Graduate,Private Non-Profit,Far West,,,36134,36134,,20966,7738,,0.068,,0.5393,Marymount California University,"Rancho Palos Verdes, CA - 30800 Palos Verdes Drive East",90275-6299,6,Rancho Palos Verdes,CA,31080,348,-118.333371,33.734887,1/1/19
1167200,,Associate,Associate,Public,Far West,,,1423,7783,,575,8389,,0.228,,0.0292,Mendocino College,"Ukiah, CA - 1000 Hensley Creek Road",95482,6,Ukiah,CA,46380,-2,-123.228809,39.188989,1/1/19
123600,,Bachelor,Bachelor,Private Non-Profit,Far West,0.4548,,42800,42800,,18298,11150,,0.069,1042,0.5396,Menlo College,"Atherton, CA - 1000 El Camino Real",94027-4301,6,Atherton,CA,41860,488,-122.190797,37.453475,1/1/19
123700,,Associate,Associate,Public,Far West,,,1150,6115,,648,8588,,,,0,Merced College,"Merced, CA - 3600 M St",95348-2898,6,Merced,CA,32900,488,-120.476464,37.3353,1/1/19
126700,,Certificate,Associate,Public,Far West,,,1254,7806,,1109,9193,,0.236,,0.0134,Merritt College,"Oakland, CA - 12500 Campus Dr",94619-3196,6,Oakland,CA,41860,488,-122.167335,37.789088,1/1/19
123800,,Bachelor,Graduate,Private Non-Profit,Far West,0.8554,,30257,30257,,19045,10308,,0.035,1158,0.6833,Mills College,"Oakland, CA - 5000 MacArthur Blvd",94613,6,Oakland,CA,41860,488,-122.182294,37.781425,1/1/19
123900,,Certificate,Associate,Public,Far West,,,1336,6768,,1467,11760,,0.139,,0.0245,MiraCosta College,"Oceanside, CA - One Barnard Drive",92056-3899,6,Oceanside,CA,41740,-2,-117.302606,33.190483,1/1/19
2119100,,Associate,Associate,Public,Far West,,,1192,6280,,1561,10379,,0.126,,0.0065,Mission College,"Santa Clara, CA - 3000 Mission College Blvd",95054-1897,6,Santa Clara,CA,41940,488,-121.980783,37.391935,1/1/19
720400,,Certificate,Certificate,Private For-Profit,Far West,,,,,16409,8849,,,0.171,,0.4211,Modern Beauty Academy,"Oxnard, CA - 699 South C St",93030,6,Oxnard,CA,37100,348,-119.181423,34.195384,1/1/19
124000,,Associate,Associate,Public,Far West,,,1166,7358,,533,8782,,,,0,Modesto Junior College,"Modesto, CA - 435 College Ave",95350-5800,6,Modesto,CA,33700,488,-121.009792,37.651056,1/1/19
2185800,,Certificate,Certificate,Private For-Profit,Far West,,,,,18342,6743,,,0.237,,0.6351,Moler Barber College,"Oakland, CA - 3815 Telegraph Ave",94609-2419,6,Oakland,CA,41860,488,-122.265352,37.827075,1/1/19
369110,,Bachelor,Graduate,Private Non-Profit,Far West,,,,,,23161,9281,,0.013,,0.6923,Middlebury Institute of International Studies at Monterey,"Monterey, CA - 460 Pierce Street",93940,6,Monterey,CA,41500,-2,-121.897325,36.599736,1/1/19
124200,,Associate,Associate,Public,Far West,,,1176,7368,,1009,8526,,0.225,,0.0177,Monterey Peninsula College,"Monterey, CA - 980 Fremont St",93940-4799,6,Monterey,CA,41500,-2,-121.884931,36.590558,1/1/19
711500,,Associate,Associate,Public,Far West,,,1388,7050,,958,8401,,0.103,,0.013,Moorpark College,"Moorpark, CA - 7075 Campus Rd",93021-1695,6,Moorpark,CA,37100,348,-118.834528,34.301146,1/1/19
124500,,Associate,Associate,Public,Far West,,,1350,9414,,975,10223,,0.139,,0.0065,Mt San Antonio College,"Walnut, CA - 1100 N Grand Ave",91789-1399,6,Walnut,CA,31080,348,-117.846629,34.047764,1/1/19
124300,,Bachelor,Graduate,Private Non-Profit,Far West,0.8382,,41170,41170,,24643,8998,,0.033,1031,0.8866,Mount Saint Mary's University,"Los Angeles, CA - 12001 Chalon Rd",90049-1599,6,Los Angeles,CA,31080,348,-118.482879,34.085315,1/1/19
124600,,Associate,Associate,Public,Far West,,,1386,10026,,511,9236,,0.111,,0,Mt San Jacinto Community College District,"San Jacinto, CA - 1499 N. State St.",92583-2399,6,San Jacinto,CA,40140,348,-116.971169,33.806748,1/1/19
2161800,,Certificate,Bachelor,Private For-Profit,Far West,0.7564,,24030,24030,,24170,3240,,0.076,,0.3253,Musicians Institute,"Hollywood, CA - 6752 Hollywood Blvd.",90028,6,Hollywood,CA,31080,348,-118.337582,34.101265,1/1/19
124700,,Associate,Associate,Public,Far West,,,1142,6758,,947,8826,,0.121,,0.0094,Napa Valley College,"Napa, CA - 2277 Napa-Vallejo Hwy",94558-6236,6,Napa,CA,34900,488,-122.274381,38.274081,1/1/19
2542300,,Certificate,Certificate,Private For-Profit,Far West,,,,,15588,11949,,,0.089,,0.4587,National Holistic Institute,"Emeryville, CA - 5900 Doyle Street",94608-2008,6,Emeryville,CA,41860,488,-122.287672,37.841898,1/1/19
1146000,,Bachelor,Graduate,Private Non-Profit,Far West,,,13320,13320,,14090,10270,,0.049,,0.3649,National University,"La Jolla, CA - 11255 North Torrey Pines Road",92037-1011,6,La Jolla,CA,41740,-2,-117.243026,32.909894,1/1/19
131000,,Graduate,Graduate,Public,US Service,,,,,,,13679,,,,,Naval Postgraduate School,"Monterey, CA - 1 University Circle",93943,6,Monterey,CA,41500,-2,-121.874248,36.597159,1/1/19
3043900,,Bachelor,Graduate,Private For-Profit,Far West,1,,27501,27501,,15557,7193,,0.08,,0.5161,Newschool of Architecture and Design,"San Diego, CA - 1249 F St",92101,6,San Diego,CA,41740,-2,-117.153305,32.71331,1/1/19
713000,,Certificate,Certificate,Private For-Profit,Far West,,,,,17700,9935,,,0.056,,0.4878,Newberry School of Beauty,"Granada Hills, CA - 16860 Devonshire Blvd",91344-7401,6,Granada Hills,CA,31080,348,-118.499693,34.256683,1/1/19
718700,,Certificate,Certificate,Private For-Profit,Far West,,,,,15573,19542,,,0.145,,0.5993,North Adrian's College of Beauty Inc,"Modesto, CA - 124 Floyd Ave",95350-2381,6,Modesto,CA,33700,488,-120.992753,37.677778,1/1/19
1287200,,Certificate,Certificate,Private For-Profit,Far West,,,,,15493,10371,,,0.017,,0.9175,North-West College-Pomona,"Pomona, CA - 170  W Holt Ave",91768,6,Pomona,CA,31080,348,-117.751227,34.062043,1/1/19
1170700,,Certificate,Associate,Private For-Profit,Far West,1,,,,15493,9116,3500,,0.014,,0.906,North-West College-West Covina,"West Covina, CA - 2121 W Garvey Ave",91790,6,West Covina,CA,31080,348,-117.949583,34.072071,1/1/19
2591600,,Certificate,Certificate,Private For-Profit,Far West,,,,,33247,11344,,,0.005,,0.8764,North-West College-Van Nuys,"Van Nuys, CA - 14540 Haynes",91411,6,Van Nuys,CA,31080,348,-118.450184,34.189497,1/1/19
117900,,Bachelor,Graduate,Private Non-Profit,Far West,0.9666,,35350,35350,,18765,9117,,0.058,983,0.6353,Notre Dame de Namur University,"Belmont, CA - 1500 Ralston Ave",94002-1908,6,Belmont,CA,41860,488,-122.284794,37.517111,1/1/19
124900,,Bachelor,Bachelor,Private Non-Profit,Far West,0.373,,54686,54686,,29134,11293,,0.016,1368,0.4594,Occidental College,"Los Angeles, CA - 1600 Campus Rd",90041-3392,6,Los Angeles,CA,31080,348,-118.210908,34.127124,1/1/19
448100,,Associate,Associate,Public,Far West,,,1164,6828,,1675,11687,,0.051,,0.0072,Ohlone College,"Fremont, CA - 43600 Mission Blvd",94539-0390,6,Fremont,CA,41860,488,-121.916339,37.52773,1/1/19
125000,,Certificate,Associate,Public,Far West,,,1186,7978,,1161,10694,,0.092,,0.0203,Orange Coast College,"Costa Mesa, CA - 2701 Fairview Road",92626,6,Costa Mesa,CA,31080,348,-117.909086,33.66927,1/1/19
125100,,Bachelor,Graduate,Private Non-Profit,Far West,0.9441,,46860,46860,,33696,7871,,0.045,1158,0.4906,Otis College of Art and Design,"Los Angeles, CA - 9045 Lincoln Blvd",90045-3505,6,Los Angeles,CA,31080,348,-118.416615,33.956607,1/1/19
1284200,,Associate,Associate,Public,Far West,,,1388,7050,,240,8663,,,,0,Oxnard College,"Oxnard, CA - 4000 S Rose Ave",93033-6699,6,Oxnard,CA,37100,348,-119.157604,34.166104,1/1/19
125200,,Bachelor,Graduate,Private Non-Profit,Far West,0.2945,,33400,33400,,12251,4582,,0.051,1022,0.6382,Hope International University,"Fullerton, CA - 2500 E Nutwood Ave",92831-3199,6,Fullerton,CA,31080,348,-117.88573,33.87616,1/1/19
793000,,Certificate,Associate,Private For-Profit,Far West,0.9066,,,,16605,14747,4851,,0.141,,0.6044,Concorde Career College-San Diego,"San Diego, CA - 4393 Imperial Avenue, Suite 100",92113-1964,6,San Diego,CA,41740,-2,-117.102845,32.702814,1/1/19
2138300,,Bachelor,Graduate,Private Non-Profit,Far West,,,,,,26399,12264,,0.045,,0.6446,Palo Alto University,"Palo Alto, CA - 1791 Arastradero Rd",94304-1337,6,Palo Alto,CA,41940,488,-122.187437,37.382216,1/1/19
125500,,Bachelor,Graduate,Private Non-Profit,Far West,0.3095,,13688,13688,,23761,6038,,0.06,,0.8501,Pacific Oaks College,"Pasadena, CA - 45 Eureka Street",91103,6,Pasadena,CA,31080,348,-118.151323,34.153382,1/1/19
125600,,Graduate,Graduate,Private Non-Profit,Far West,,,,,,8407,6946,,0.071,,,Pacific School of Religion,"Berkeley, CA - 1798 Scenic Ave",94709,6,Berkeley,CA,41860,488,-122.263155,37.87669,1/1/19
3163300,,Bachelor,Graduate,Private Non-Profit,Far West,,,16065,16065,,11831,3500,,0.111,,0,Pacific States University,"Los Angeles, CA - 3424 Wilshire Blvd. 12th floor",90010-2263,6,Los Angeles,CA,31080,348,-118.298408,34.061315,1/1/19
125800,,Bachelor,Bachelor,Private Non-Profit,Far West,0.4944,,30060,30060,,16868,6285,,0.08,1080,0.7145,Pacific Union College,"Angwin, CA - One Angwin Ave",94508-9707,6,Angwin,CA,34900,488,-122.440308,38.570585,1/1/19
132900,,Bachelor,Graduate,Private Non-Profit,Far West,0.6348,,48164,48164,,32936,10587,,0.021,1240,0.5175,University of the Pacific,"Stockton, CA - 3601 Pacific Ave",95211-0197,6,Stockton,CA,44700,488,-121.312301,37.981424,1/1/19
125900,,Certificate,Associate,Public,Far West,,,1288,9120,,429,9118,,,,0,Palo Verde College,"Blythe, CA - One College Drive",92225,6,Blythe,CA,40140,348,-114.651698,33.661538,1/1/19
126000,,Certificate,Associate,Public,Far West,,,1338,8702,,1036,10290,,0.132,,0.0068,Palomar College,"San Marcos, CA - 1140 W. Mission",92069-1487,6,San Marcos,CA,41740,-2,-117.183978,33.149483,1/1/19
126100,,Associate,Associate,Public,Far West,,,1166,7548,,1401,8865,,0.098,,0.0063,Pasadena City College,"Pasadena, CA - 1570 E Colorado Blvd.",91106-2003,6,Pasadena,CA,31080,348,-118.118196,34.144552,1/1/19
1014900,,Bachelor,Graduate,Private Non-Profit,Far West,0.3565,,53932,53932,,31625,12387,,0.014,1330,0.381,Pepperdine University,"Malibu, CA - 24255 Pacific Coast Hwy",90263,6,Malibu,CA,31080,348,-118.707077,34.037786,1/1/19
117200,,Bachelor,Bachelor,Private Non-Profit,Far West,0.1333,,54056,54056,,50757,11104,,0.065,,0.378,Pitzer College,"Claremont, CA - 1050 North Mills Avenue",91711-6101,6,Claremont,CA,31080,348,-117.706675,34.104107,1/1/19
2304300,,Associate,Bachelor,Private For-Profit,Far West,,,17235,17235,,21641,3460,,0.07,,0.4326,Platt College-San Diego,"San Diego, CA - 6250 El Cajon Blvd",92115-3919,6,San Diego,CA,41740,-2,-117.063483,32.76373,1/1/19
126200,,Bachelor,Graduate,Private Non-Profit,Far West,0.6893,,35700,35700,,21015,10189,,0.027,1240,0.5851,Point Loma Nazarene University,"San Diego, CA - 3900 Lomaland Dr",92106-2899,6,San Diego,CA,41740,-2,-117.250265,32.718391,1/1/19
117300,,Bachelor,Bachelor,Private Non-Profit,Far West,0.0761,,52780,52780,,22245,13451,,0,1468,0.1226,Pomona College,"Claremont, CA - 550 N College Ave",91711-6319,6,Claremont,CA,31080,348,-117.714556,34.099027,1/1/19
126800,,Associate,Associate,Public,Far West,,,1322,7286,,366,12818,,,,0,Porterville College,"Porterville, CA - 100 E College Ave",93257,6,Porterville,CA,47300,-2,-119.014368,36.049256,1/1/19
1298400,,Certificate,Certificate,Private For-Profit,Far West,,,,,14475,6081,,,0.132,,0.3333,Professional Institute of Beauty,"El Monte, CA - 10801 E. Valley Mall",91731,6,El Monte,CA,31080,348,-118.039028,34.075561,1/1/19
128400,,Certificate,Associate,Public,Far West,,,1160,8960,,728,10596,,0.075,,0.0053,Santa Ana College,"Santa Ana, CA - 1530 W. 17th Street",92706-3398,6,Santa Ana,CA,31080,348,-117.887558,33.759309,1/1/19
1044100,,Graduate,Graduate,Private Non-Profit,Far West,,,,,,11951,,,0,,,Pardee RAND Graduate School,"Santa Monica, CA - 1776 Main St",90401-3208,6,Santa Monica,CA,31080,348,-118.490655,34.00973,1/1/19
4161700,,Certificate,Certificate,Private For-Profit,Far West,,,,,12050,3733,,,,,0,Shasta School of Cosmetology,"Redding, CA - 678 N Market St",96003,6,Redding,CA,39820,454,-122.387248,40.597114,1/1/19
132200,,Bachelor,Graduate,Private Non-Profit,Far West,0.7475,,49504,49504,,18560,10242,,0.032,1189,0.581,University of Redlands,"Redlands, CA - 1200 E. Colton Ave",92373-0999,6,Redlands,CA,40140,348,-117.163218,34.064218,1/1/19
118500,,Associate,Associate,Public,Far West,,,1182,6822,,968,7435,,0.188,,0.0657,College of the Redwoods,"Eureka, CA - 7351 Tompkins Hill Rd",95501-9300,6,Eureka,CA,21700,-2,-124.195293,40.698427,1/1/19
720300,,Certificate,Certificate,Private For-Profit,Far West,,,,,20000,11959,,,0.145,,0.6414,Salon Success Academy-Upland,"Upland, CA - 1385 E. Foothill Blvd",91786,6,Upland,CA,40140,348,-117.631783,34.108247,1/1/19
1309500,,Certificate,Certificate,Private For-Profit,Far West,,,,,20000,7316,,,0.149,,0.7195,Salon Success Academy-Corona,"Corona, CA - 2097 Compton Ave. Suite 201",92881,6,Corona,CA,40140,348,-117.535638,33.847649,1/1/19
126900,,Certificate,Associate,Public,Far West,,,1360,6624,,684,9751,,0.153,,0.0029,Rio Hondo College,"Whittier, CA - 3600 Workman Mill Rd",90601-1616,6,Whittier,CA,31080,348,-118.033506,34.019821,1/1/19
127000,,Associate,Associate,Public,Far West,,,1420,9160,,742,10874,,0.139,,0.0153,Riverside City College,"Riverside, CA - 4800 Magnolia Avenue",92506,6,Riverside,CA,40140,348,-117.384323,33.970918,1/1/19
1294200,,Certificate,Certificate,Private For-Profit,Far West,,,,,4870,9443,,,,,0,Rosemead Beauty School,"Rosemead, CA - 8531 E Valley Blvd",91770-1639,6,Rosemead,CA,31080,348,-118.082793,34.080756,1/1/19
3109500,,Graduate,Graduate,Private Non-Profit,Far West,,,,,,5767,4225,,0.058,,,Dongguk University-Los Angeles,"Los Angeles, CA - 440 Shatto Pl",90020-1704,6,Los Angeles,CA,31080,348,-118.289523,34.06597,1/1/19
123300,,Associate,Associate,Public,Far West,,,1104,8712,,713,8413,,0.174,,0.0365,Sacramento City College,"Sacramento, CA - 3835 Freeport Blvd",95822-1386,6,Sacramento,CA,40900,472,-121.491139,38.541096,1/1/19
891800,,Certificate,Associate,Public,Far West,,,1328,9392,,1863,10498,,0.121,,0.0136,Saddleback College,"Mission Viejo, CA - 28000 Marguerite Pky",92692-3635,6,Mission Viejo,CA,31080,348,-117.665584,33.553346,1/1/19
701200,,Bachelor,Graduate,Private Non-Profit,Far West,,,,,,28900,10646,,0.004,,0.5452,Samuel Merritt University,"Oakland, CA - 3100 Telegraph Avenue",94609,6,Oakland,CA,41860,488,-122.266331,37.82029,1/1/19
127300,,Certificate,Associate,Public,Far West,,,1144,7024,,674,8994,,0.148,,0.0223,San Diego City College,"San Diego, CA - 1313 Park Boulevard",92101-4787,6,San Diego,CA,41740,-2,-117.152733,32.717403,1/1/19
127500,,Associate,Associate,Public,Far West,,,1144,7024,,574,8953,,0.1,,0.0127,San Diego Mesa College,"San Diego, CA - 7250 Mesa College Dr",92111-4998,6,San Diego,CA,41740,-2,-117.169165,32.803825,1/1/19
1182000,,Associate,Associate,Public,Far West,,,1144,7024,,584,8933,,0.091,,0.0114,San Diego Miramar College,"San Diego, CA - 10440 Black Mountain Rd",92126-2999,6,San Diego,CA,41740,-2,-117.120261,32.909757,1/1/19
115100,,Bachelor,Graduate,Public,Far West,0.3458,,7488,19340,,6737,10903,,0.029,1213,0.2827,San Diego State University,"San Diego, CA - 5500 Campanile Dr",92182-0001,6,San Diego,CA,41740,-2,-117.071228,32.77525,1/1/19
1039500,,Bachelor,Graduate,Private Non-Profit,Far West,0.5292,,49358,49358,,29223,12168,,0.018,1285,0.3753,University of San Diego,"San Diego, CA - 5998 Alcala Park",92110-2492,6,San Diego,CA,41740,-2,-117.192073,32.770816,1/1/19
394800,,Bachelor,Graduate,Private Non-Profit,Far West,0.9487,,46534,46534,,28863,6928,,0.047,,0.5953,San Francisco Art Institute,"San Francisco, CA - 800 Chestnut St",94133-2299,6,San Francisco,CA,41860,488,-122.417,37.803575,1/1/19
127800,,Certificate,Graduate,Private Non-Profit,Far West,0.4521,,46210,46210,,23328,12947,,0.044,,0.4585,San Francisco Conservatory of Music,"San Francisco, CA - 50 Oak Street",94102-6011,6,San Francisco,CA,41860,488,-122.420292,37.775543,1/1/19
115400,,Bachelor,Graduate,Public,Far West,0.7176,,7260,19140,,5482,10744,,0.053,1054,0.3371,San Francisco State University,"San Francisco, CA - 1600 Holloway Ave",94132,6,San Francisco,CA,41860,488,-122.476799,37.721224,1/1/19
127900,,Graduate,Graduate,Private Non-Profit,Far West,,,,,,6963,7724,,0.085,,,San Francisco Theological Seminary,"San Anselmo, CA - 105 Seminary Road",94960-0000,6,San Anselmo,CA,41860,488,-122.565407,37.969952,1/1/19
132500,,Bachelor,Graduate,Private Non-Profit,Far West,0.6455,,48066,48066,,28022,12379,,0.021,1237,0.5069,University of San Francisco,"San Francisco, CA - 2130 Fulton St",94117-1080,6,San Francisco,CA,41860,488,-122.450477,37.776618,1/1/19
2500000,,Graduate,Graduate,Private Non-Profit,Far West,,,,,,23661,8393,,0.034,,,San Joaquin College of Law,"Clovis, CA - 901 Fifth St",93612-1312,6,Clovis,CA,23420,260,-119.697657,36.82448,1/1/19
128000,,Associate,Associate,Public,Far West,,,1288,8848,,572,9843,,0.231,,0.0306,San Joaquin Delta College,"Stockton, CA - 5151 Pacific Ave",95207,6,Stockton,CA,44700,488,-121.318266,37.995129,1/1/19
2120700,,Certificate,Associate,Private For-Profit,Far West,,,,,47850,8735,4898,,0.214,,0.6003,San Joaquin Valley College-Visalia,"Visalia, CA - 8344 W Mineral King Ave",93291-9283,6,Visalia,CA,47300,-2,-119.384981,36.328049,1/1/19
2120700,,Certificate,Associate,Private For-Profit,Far West,,,,,47850,8735,4898,,0.214,,0.6003,San Joaquin Valley College-Central Administrative Office,"Visalia, CA - 3828 W. Caldwell Ave.",93277,6,Visalia,CA,47300,-2,-119.333362,36.298938,1/1/19
128100,,Bachelor,Graduate,Private Non-Profit,Far West,0.5853,,33550,33550,,15084,6907,,0.067,1084,0.6761,William Jessup University,"Rocklin, CA - 2121 University Avenue",95765-3707,6,Rocklin,CA,40900,472,-121.292312,38.819728,1/1/19
128200,,Associate,Associate,Public,Far West,,,1358,7994,,1157,11143,,0.205,,0.0091,San Jose City College,"San Jose, CA - 2100 Moorpark Ave",95128-2798,6,San Jose,CA,41940,488,-121.926185,37.315827,1/1/19
115500,,Bachelor,Graduate,Public,Far West,0.5466,,7796,19676,,6385,10626,,0.035,1143,0.2975,San Jose State University,"San Jose, CA - One Washington Square",95192-0001,6,San Jose,CA,41940,488,-121.880621,37.336569,1/1/19
118100,,Associate,Associate,Public,Far West,,,1344,6300,,1295,10569,,0.079,,0.0056,College of San Mateo,"San Mateo, CA - 1700 W Hillsdale Blvd",94402-3784,6,San Mateo,CA,41860,488,-122.334801,37.535698,1/1/19
2577900,,Associate,Bachelor,Private For-Profit,Far West,,,11658,11658,,15659,5001,,0.124,,0.7922,Santa Barbara Business College-Bakersfield,"Bakersfield, CA - 5300 California Avenue",93309,6,Bakersfield,CA,12540,-2,-119.061264,35.359544,1/1/19
2578000,,Associate,Bachelor,Private For-Profit,Far West,,,11658,11658,,14214,5771,,0.038,,0.7949,Santa Barbara Business College-Santa Maria,"Santa Maria, CA - 303 E Plaza Dr Ste 1",93454,6,Santa Maria,CA,42200,-2,-120.433296,34.937806,1/1/19
128500,,Associate,Associate,Public,Far West,,,1374,8326,,2186,9238,,0.126,,0.0815,Santa Barbara City College,"Santa Barbara, CA - 721 Cliff Drive",93109-2394,6,Santa Barbara,CA,42200,-2,-119.698045,34.406788,1/1/19
132600,,Bachelor,Graduate,Private Non-Profit,Far West,0.4991,,51711,51711,,32521,12700,,0.007,1366,0.2773,Santa Clara University,"Santa Clara, CA - 500 El Camino Real",95053,6,Santa Clara,CA,41940,488,-121.93784,37.348362,1/1/19
128600,,Associate,Bachelor,Public,Far West,,,1142,8918,,2934,10776,,0.097,,0.0167,Santa Monica College,"Santa Monica, CA - 1900 Pico Blvd",90405-1628,6,Santa Monica,CA,31080,348,-118.469765,34.017022,1/1/19
128700,,Certificate,Associate,Public,Far West,,,1328,8174,,1272,9770,,0.085,,0.013,Santa Rosa Junior College,"Santa Rosa, CA - 1501 Mendocino Avenue",95401-4395,6,Santa Rosa,CA,42220,488,-122.718974,38.45709,1/1/19
2120600,,Graduate,Graduate,Private Non-Profit,Far West,,,,,,29148,6383,,0.061,,,Saybrook University,"Pasadena, CA - 55 W Eureka Street",91103,6,Pasadena,CA,31080,348,-118.152155,34.153103,1/1/19
117400,,Bachelor,Graduate,Private Non-Profit,Far West,0.2424,,55024,55024,,36851,11478,,0,1409,0.3296,Scripps College,"Claremont, CA - 1030 North Columbia Avenue",91711-3905,6,Claremont,CA,31080,348,-117.711294,34.104147,1/1/19
